timestamp,elapsed_time,pos_x,pos_y,pos_z,raw_pos_x,raw_pos_y,raw_pos_z,error_x,error_y,target_x,target_y,roll_ref_rad,pitch_ref_rad,roll_ref_deg,pitch_ref_deg,pid_x_p,pid_x_i,pid_x_d,pid_y_p,pid_y_i,pid_y_d,frame_number,marker_count,send_success,control_active,loop_time_ms,frame_dt_ms,command_sequence,feedback_sequence,feedback_roll_rad,feedback_pitch_rad,feedback_latency_ms,feedback_age_ms,feedback_match,feedback_delta_roll,feedback_delta_pitch,is_outlier,used_prediction,confidence,consecutive_outliers,data_valid,data_source,filter_threshold,tracking_valid,rb_error,rb_marker_count,rb_pos_x,rb_pos_y,rb_pos_z,rb_qx,rb_qy,rb_qz,rb_qw,rb_roll_deg,rb_pitch_deg,rb_yaw_deg
2025-12-24T00:55:52.603818,0.5043,-0.000677,0.010026,-0.016435,-0.000627,0.010031,-0.016402,0.000000,0.000000,0.000000,0.000000,0.000000,0.000000,0.000,0.000,0.000000,0.000000,0.000000,0.000000,0.000000,0.000000,14673780,4,1,1,0.00,16.000,1,0,0.000000,0.000000,,38.857,0,0.000000,0.000000,0,0,0.998,0,0,rigid_body,0.1321,1,0.00081,0,-0.000627,0.010031,-0.016402,-0.006786,0.002906,0.003202,0.999968,-0.777,0.335,0.365
2025-12-24T00:55:52.614397,0.5149,-0.000679,0.010028,-0.016456,-0.000694,0.010028,-0.016518,0.300679,-0.010028,0.300000,0.000000,0.041794,0.001396,2.395,0.080,0.041794,0.000000,0.000000,0.001394,0.000002,-0.000000,14673781,4,1,1,0.00,15.000,2,0,0.000000,0.000000,,3.026,0,-0.041794,-0.001396,0,0,0.998,0,1,rigid_body,0.1321,1,0.00082,0,-0.000694,0.010028,-0.016518,-0.005543,0.002918,0.003879,0.999973,-0.634,0.337,0.443
2025-12-24T00:55:52.625014,0.5255,-0.000679,0.010023,-0.016452,-0.000689,0.010020,-0.016447,0.300679,-0.010023,0.300000,0.000000,0.041794,0.001396,2.395,0.080,0.041794,0.000000,0.000000,0.001394,0.000002,-0.000000,14673782,4,1,1,0.00,0.000,3,0,0.000000,0.000000,,13.644,0,-0.041794,-0.001396,0,0,0.998,0,1,rigid_body,0.1321,1,0.00079,0,-0.000689,0.010020,-0.016447,-0.006726,0.002797,0.003332,0.999968,-0.770,0.323,0.380
2025-12-24T00:55:52.635438,0.5359,-0.000676,0.010020,-0.016439,-0.000672,0.010011,-0.016410,0.300676,-0.010020,0.300000,0.000000,0.041765,0.001338,2.393,0.077,0.041794,0.000000,-0.000029,0.001393,0.000005,-0.000060,14673783,4,1,1,0.00,16.000,4,2,0.041794,0.001396,12.462,8.579,1,0.000030,0.000058,0,0,0.998,0,1,rigid_body,0.1321,1,0.00082,0,-0.000672,0.010011,-0.016410,-0.006401,0.002896,0.002563,0.999972,-0.733,0.334,0.292
2025-12-24T00:55:52.646015,0.5465,-0.000669,0.010015,-0.016448,-0.000657,0.010003,-0.016463,0.300669,-0.010015,0.300000,0.000000,0.041765,0.001338,2.393,0.077,0.041794,0.000000,-0.000029,0.001393,0.000005,-0.000060,14673784,4,1,1,0.00,0.000,5,3,0.041794,0.001396,17.478,3.524,1,0.000030,0.000058,0,0,0.998,0,1,rigid_body,0.1321,1,0.00081,0,-0.000657,0.010003,-0.016463,-0.006202,0.002621,0.003243,0.999972,-0.710,0.303,0.370
2025-12-24T00:55:52.656603,0.5571,-0.000674,0.010030,-0.016480,-0.000675,0.010068,-0.016538,0.300674,-0.010030,0.300000,0.000000,0.041772,0.001456,2.393,0.083,0.041794,0.000000,-0.000021,0.001394,0.000008,0.000054,14673785,4,1,1,0.00,16.000,6,3,0.041794,0.001396,17.478,14.111,1,0.000022,-0.000060,0,0,0.998,0,1,rigid_body,0.1321,1,0.00083,0,-0.000675,0.010068,-0.016538,-0.005458,0.002725,0.003742,0.999974,-0.624,0.315,0.427
2025-12-24T00:55:52.667178,0.5676,-0.000679,0.010035,-0.016494,-0.000695,0.010046,-0.016534,0.300679,-0.010035,0.300000,0.000000,0.041823,0.001470,2.396,0.084,0.041794,0.000000,0.000029,0.001395,0.000011,0.000063,14673786,4,1,1,0.00,15.000,7,4,0.041765,0.001338,22.677,9.064,1,-0.000058,-0.000132,0,0,0.998,0,1,rigid_body,0.1321,1,0.00083,0,-0.000695,0.010046,-0.016534,-0.005289,0.003110,0.003869,0.999974,-0.605,0.359,0.442
2025-12-24T00:55:52.678043,0.5785,-0.000673,0.010030,-0.016468,-0.000663,0.010015,-0.016399,0.300673,-0.010030,0.300000,0.000000,0.041823,0.001470,2.396,0.084,0.041794,0.000000,0.000029,0.001395,0.000011,0.000063,14673787,4,1,1,0.00,0.000,8,6,0.041772,0.001456,16.901,4.540,1,-0.000051,-0.000013,0,0,0.998,0,1,rigid_body,0.1321,1,0.00080,0,-0.000663,0.010015,-0.016399,-0.006474,0.003032,0.002431,0.999972,-0.741,0.349,0.276
2025-12-24T00:55:52.688646,0.5891,-0.000670,0.010023,-0.016461,-0.000662,0.010002,-0.016429,0.300670,-0.010023,0.300000,0.000000,0.041734,0.001342,2.391,0.077,0.041793,0.000000,-0.000059,0.001393,0.000015,-0.000066,14673788,4,1,1,0.00,16.000,9,7,0.041823,0.001470,21.468,0.000,1,0.000089,0.000127,0,0,0.998,0,1,rigid_body,0.1321,1,0.00078,0,-0.000662,0.010002,-0.016429,-0.006310,0.002879,0.003250,0.999971,-0.722,0.332,0.370
2025-12-24T00:55:52.700301,0.6008,-0.000670,0.010030,-0.016463,-0.000638,0.010038,-0.016450,0.300670,-0.010030,0.300000,0.000000,0.041885,0.001454,2.400,0.083,0.041795,0.000000,0.000090,0.001394,0.000018,0.000042,14673790,4,1,1,0.00,0.000,10,7,0.041823,0.001470,21.468,11.655,1,-0.000062,0.000015,0,0,0.998,0,1,rigid_body,0.1321,1,0.00080,0,-0.000638,0.010038,-0.016450,-0.006439,0.002924,0.002924,0.999971,-0.737,0.337,0.333
2025-12-24T00:55:52.710880,0.6113,-0.000674,0.010025,-0.016452,-0.000691,0.010019,-0.016446,0.300674,-0.010025,0.300000,0.000000,0.041759,0.001384,2.393,0.079,0.041794,0.000000,-0.000035,0.001394,0.000021,-0.000030,14673791,4,1,1,0.00,16.000,11,9,0.041734,0.001342,15.162,7.071,1,-0.000024,-0.000042,0,0,0.998,0,1,rigid_body,0.1321,1,0.00081,0,-0.000691,0.010019,-0.016446,-0.006370,0.002780,0.003102,0.999971,-0.729,0.321,0.353
2025-12-24T00:55:52.721542,0.6220,-0.000671,0.010031,-0.016463,-0.000659,0.010040,-0.016474,0.300671,-0.010031,0.300000,0.000000,0.041759,0.001384,2.393,0.079,0.041794,0.000000,-0.000035,0.001394,0.000021,-0.000030,14673792,4,1,1,0.00,0.000,12,10,0.041885,0.001454,18.728,2.513,1,0.000126,0.000070,0,0,0.998,0,1,rigid_body,0.1321,1,0.00079,0,-0.000659,0.010040,-0.016474,-0.006551,0.002746,0.003346,0.999969,-0.750,0.317,0.381
2025-12-24T00:55:52.732147,0.6326,-0.000670,0.010034,-0.016471,-0.000668,0.010033,-0.016479,0.300670,-0.010034,0.300000,0.000000,0.041749,0.001471,2.392,0.084,0.041793,0.000000,-0.000044,0.001395,0.000024,0.000052,14673793,4,1,1,0.00,16.000,13,10,0.041885,0.001454,18.728,13.118,1,0.000136,-0.000017,0,0,0.998,0,1,rigid_body,0.1321,1,0.00083,0,-0.000668,0.010033,-0.016479,-0.005850,0.002935,0.003273,0.999973,-0.669,0.339,0.373
2025-12-24T00:55:52.742742,0.6432,-0.000672,0.010036,-0.016491,-0.000688,0.010043,-0.016546,0.300672,-0.010036,0.300000,0.000000,0.041792,0.001459,2.394,0.084,0.041793,0.000000,-0.000002,0.001395,0.000027,0.000037,14673794,4,1,1,0.00,15.000,14,12,0.041759,0.001384,12.637,8.564,1,-0.000033,-0.000074,0,0,0.998,0,1,rigid_body,0.1321,1,0.00084,0,-0.000688,0.010043,-0.016546,-0.005561,0.002811,0.003714,0.999974,-0.636,0.324,0.424
2025-12-24T00:55:52.753263,0.6537,-0.000669,0.010031,-0.016483,-0.000653,0.010020,-0.016453,0.300669,-0.010031,0.300000,0.000000,0.041792,0.001459,2.394,0.084,0.041793,0.000000,-0.000002,0.001395,0.000027,0.000037,14673795,4,1,1,0.00,0.000,15,13,0.041749,0.001471,17.601,3.515,1,-0.000043,0.000012,0,0,0.998,0,1,rigid_body,0.1321,1,0.00079,0,-0.000653,0.010020,-0.016453,-0.006758,0.002804,0.003219,0.999968,-0.773,0.324,0.367
2025-12-24T00:55:52.763829,0.6643,-0.000662,0.010031,-0.016462,-0.000651,0.010028,-0.016405,0.300662,-0.010031,0.300000,0.000000,0.041712,0.001402,2.390,0.080,0.041792,0.000000,-0.000080,0.001394,0.000030,-0.000023,14673796,4,1,1,0.00,16.000,16,13,0.041749,0.001471,17.601,14.081,1,0.000037,0.000069,0,0,0.998,0,1,rigid_body,0.1321,1,0.00081,0,-0.000651,0.010028,-0.016405,-0.006513,0.002829,0.002749,0.999971,-0.745,0.326,0.313
2025-12-24T00:55:52.774475,0.6749,-0.000664,0.010029,-0.016457,-0.000667,0.010027,-0.016450,0.300664,-0.010029,0.300000,0.000000,0.041775,0.001403,2.394,0.080,0.041792,0.000000,-0.000017,0.001394,0.000033,-0.000024,14673797,4,1,1,0.00,16.000,17,13,0.041749,0.001471,,9.129,0,-0.000026,0.000068,0,0,0.998,0,1,rigid_body,0.1321,1,0.00080,0,-0.000667,0.010027,-0.016450,-0.006512,0.002746,0.003006,0.999971,-0.745,0.317,0.342
2025-12-24T00:55:52.785258,0.6857,-0.000672,0.010028,-0.016472,-0.000691,0.010027,-0.016513,0.300672,-0.010028,0.300000,0.000000,0.041775,0.001403,2.394,0.080,0.041792,0.000000,-0.000017,0.001394,0.000033,-0.000024,14673798,4,1,1,0.00,0.000,18,16,0.041712,0.001402,16.910,4.520,1,-0.000063,-0.000001,0,0,0.998,0,1,rigid_body,0.1321,1,0.00082,0,-0.000691,0.010027,-0.016513,-0.005081,0.002906,0.003624,0.999976,-0.581,0.335,0.414
2025-12-24T00:55:52.795862,0.6963,-0.000665,0.010024,-0.016457,-0.000654,0.010020,-0.016443,0.300665,-0.010024,0.300000,0.000000,0.041792,0.001383,2.395,0.079,0.041792,0.000000,-0.000000,0.001393,0.000037,-0.000047,14673799,4,1,1,0.00,15.000,19,16,0.041712,0.001402,16.910,15.123,1,-0.000081,0.000019,0,0,0.998,0,1,rigid_body,0.1321,1,0.00077,0,-0.000654,0.010020,-0.016443,-0.006443,0.002880,0.003403,0.999969,-0.737,0.333,0.388
2025-12-24T00:55:52.806446,0.7069,-0.000665,0.010024,-0.016464,-0.000662,0.010022,-0.016478,0.300665,-0.010024,0.300000,0.000000,0.041794,0.001412,2.395,0.081,0.041792,0.000000,0.000001,0.001393,0.000040,-0.000021,14673800,4,1,1,0.00,16.000,20,18,0.041775,0.001403,11.115,10.073,1,-0.000019,-0.000008,0,0,0.998,0,1,rigid_body,0.1321,1,0.00079,0,-0.000662,0.010022,-0.016478,-0.006459,0.002906,0.003199,0.999970,-0.739,0.335,0.364
2025-12-24T00:55:52.817278,0.7177,-0.000660,0.010022,-0.016467,-0.000646,0.010020,-0.016458,0.300660,-0.010022,0.300000,0.000000,0.041794,0.001412,2.395,0.081,0.041792,0.000000,0.000001,0.001393,0.000040,-0.000021,14673801,4,1,1,0.00,0.000,21,19,0.041792,0.001383,15.652,5.765,1,-0.000002,-0.000029,0,0,0.998,0,1,rigid_body,0.1321,1,0.00080,0,-0.000646,0.010020,-0.016458,-0.006200,0.002967,0.003029,0.999972,-0.709,0.342,0.345
2025-12-24T00:55:52.827851,0.7283,-0.000667,0.010023,-0.016475,-0.000684,0.010026,-0.016488,0.300667,-0.010023,0.300000,0.000000,0.041812,0.001420,2.396,0.081,0.041793,0.000000,0.000019,0.001393,0.000043,-0.000016,14673802,4,1,1,0.00,15.000,22,20,0.041794,0.001412,20.398,1.007,1,-0.000018,-0.000008,0,0,0.998,0,1,rigid_body,0.1321,1,0.00083,0,-0.000684,0.010026,-0.016488,-0.005071,0.003056,0.003402,0.999977,-0.580,0.352,0.388
2025-12-24T00:55:52.838213,0.7387,-0.000672,0.010032,-0.016483,-0.000691,0.010054,-0.016511,0.300672,-0.010032,0.300000,0.000000,0.041841,0.001505,2.397,0.086,0.041793,0.000000,0.000047,0.001395,0.000046,0.000065,14673803,4,1,1,0.00,16.000,23,20,0.041794,0.001412,20.398,11.369,1,-0.000047,-0.000093,0,0,0.998,0,1,rigid_body,0.1321,1,0.00081,0,-0.000691,0.010054,-0.016511,-0.005570,0.003114,0.003473,0.999974,-0.637,0.359,0.396
2025-12-24T00:55:52.848545,0.7490,-0.000666,0.010030,-0.016480,-0.000646,0.010022,-0.016461,0.300666,-0.010030,0.300000,0.000000,0.041841,0.001505,2.397,0.086,0.041793,0.000000,0.000047,0.001395,0.000046,0.000065,14673804,4,1,1,0.00,0.000,24,21,0.041794,0.001412,25.041,6.227,1,-0.000047,-0.000093,0,0,0.998,0,1,rigid_body,0.1320,1,0.00079,0,-0.000646,0.010022,-0.016461,-0.006679,0.002916,0.003259,0.999968,-0.764,0.337,0.371
2025-12-24T00:55:52.859113,0.7596,-0.000663,0.010029,-0.016467,-0.000654,0.010023,-0.016439,0.300663,-0.010029,0.300000,0.000000,0.041735,0.001442,2.391,0.083,0.041792,0.000000,-0.000057,0.001394,0.000049,-0.000001,14673805,4,1,1,0.00,16.000,25,23,0.041841,0.001505,19.503,1.504,1,0.000106,0.000063,0,0,0.998,0,1,rigid_body,0.1321,1,0.00079,0,-0.000654,0.010023,-0.016439,-0.006505,0.003084,0.003070,0.999969,-0.744,0.356,0.350
2025-12-24T00:55:52.869682,0.7701,-0.000674,0.010034,-0.016494,-0.000694,0.010044,-0.016551,0.300674,-0.010034,0.300000,0.000000,0.041863,0.001492,2.399,0.085,0.041794,0.000000,0.000069,0.001395,0.000052,0.000045,14673806,4,1,1,0.00,15.000,26,23,0.041841,0.001505,19.503,12.073,1,-0.000022,0.000013,0,0,0.998,0,1,rigid_body,0.1321,1,0.00084,0,-0.000694,0.010044,-0.016551,-0.005400,0.002819,0.003676,0.999975,-0.618,0.325,0.419
2025-12-24T00:55:52.880519,0.7810,-0.000661,0.010027,-0.016479,-0.000654,0.010027,-0.016469,0.300661,-0.010027,0.300000,0.000000,0.041721,0.001413,2.390,0.081,0.041792,0.000000,-0.000071,0.001394,0.000055,-0.000036,14673808,4,1,1,0.00,16.000,27,25,0.041735,0.001442,13.664,7.742,1,0.000015,0.000029,0,0,0.998,0,1,rigid_body,0.1321,1,0.00080,0,-0.000654,0.010027,-0.016469,-0.006569,0.003025,0.003291,0.999968,-0.752,0.349,0.375
2025-12-24T00:55:52.891033,0.7915,-0.000659,0.010027,-0.016473,-0.000651,0.010025,-0.016454,0.300659,-0.010027,0.300000,0.000000,0.041721,0.001413,2.390,0.081,0.041792,0.000000,-0.000071,0.001394,0.000055,-0.000036,14673809,4,1,1,0.00,0.000,28,26,0.041863,0.001492,,3.030,0,0.000142,0.000079,0,0,0.998,0,1,rigid_body,0.1320,1,0.00081,0,-0.000651,0.010025,-0.016454,-0.006289,0.003155,0.002890,0.999971,-0.720,0.364,0.329
2025-12-24T00:55:52.901733,0.8022,-0.000661,0.010024,-0.016483,-0.000663,0.010016,-0.016497,0.300661,-0.010024,0.300000,0.000000,0.041763,0.001410,2.393,0.081,0.041792,0.000000,-0.000029,0.001393,0.000059,-0.000042,14673810,4,1,1,0.00,16.000,29,26,0.041863,0.001492,,13.730,0,0.000100,0.000082,0,0,0.998,0,1,rigid_body,0.1321,1,0.00079,0,-0.000663,0.010016,-0.016497,-0.005876,0.003030,0.003573,0.999972,-0.672,0.350,0.407
2025-12-24T00:55:52.912381,0.8128,-0.000662,0.010029,-0.016490,-0.000674,0.010048,-0.016524,0.300662,-0.010029,0.300000,0.000000,0.041790,0.001484,2.394,0.085,0.041792,0.000000,-0.000002,0.001394,0.000062,0.000029,14673811,4,1,1,0.00,15.000,30,28,0.041721,0.001413,12.234,9.114,1,-0.000069,-0.000071,0,0,0.998,0,1,rigid_body,0.1321,1,0.00085,0,-0.000674,0.010048,-0.016524,-0.005354,0.003220,0.003357,0.999975,-0.612,0.371,0.383
2025-12-24T00:55:52.922907,0.8234,-0.000657,0.010019,-0.016464,-0.000644,0.009993,-0.016399,0.300657,-0.010019,0.300000,0.000000,0.041790,0.001484,2.394,0.085,0.041792,0.000000,-0.000002,0.001394,0.000062,0.000029,14673812,4,1,1,0.00,0.000,31,28,0.041721,0.001413,12.234,19.640,1,-0.000069,-0.000071,0,0,0.998,0,1,rigid_body,0.1320,1,0.00079,0,-0.000644,0.009993,-0.016399,-0.006132,0.003054,0.002867,0.999973,-0.702,0.352,0.326
2025-12-24T00:55:52.933479,0.8339,-0.000662,0.010018,-0.016458,-0.000672,0.010019,-0.016446,0.300662,-0.010018,0.300000,0.000000,0.041792,0.001383,2.394,0.079,0.041792,0.000000,-0.000000,0.001393,0.000065,-0.000074,14673813,4,1,1,0.00,16.000,32,28,0.041721,0.001413,12.234,30.212,1,-0.000071,0.000030,0,0,0.998,0,1,rigid_body,0.1321,1,0.00080,0,-0.000672,0.010019,-0.016446,-0.006275,0.002816,0.003142,0.999971,-0.718,0.325,0.358
2025-12-24T00:55:52.944039,0.8445,-0.000659,0.010019,-0.016451,-0.000649,0.010021,-0.016434,0.300659,-0.010019,0.300000,0.000000,0.041767,0.001433,2.393,0.082,0.041792,0.000000,-0.000024,0.001393,0.000068,-0.000027,14673814,4,1,1,0.00,15.000,33,30,0.041790,0.001484,22.106,9.552,1,0.000022,0.000051,0,0,0.998,0,1,rigid_body,0.1321,1,0.00079,0,-0.000649,0.010021,-0.016434,-0.006950,0.003055,0.002932,0.999967,-0.795,0.352,0.334
2025-12-24T00:55:52.954680,0.8551,-0.000666,0.010029,-0.016473,-0.000682,0.010052,-0.016537,0.300666,-0.010029,0.300000,0.000000,0.041767,0.001433,2.393,0.082,0.041792,0.000000,-0.000024,0.001393,0.000068,-0.000027,14673815,4,1,1,0.00,0.000,34,32,0.041792,0.001383,17.148,4.054,1,0.000024,-0.000050,0,0,0.998,0,1,rigid_body,0.1321,1,0.00084,0,-0.000682,0.010052,-0.016537,-0.005540,0.002879,0.003655,0.999974,-0.634,0.332,0.417
2025-12-24T00:55:52.965325,0.8658,-0.000662,0.010023,-0.016460,-0.000658,0.010015,-0.016443,0.300662,-0.010023,0.300000,0.000000,0.041808,0.001488,2.395,0.085,0.041792,0.000000,0.000016,0.001393,0.000071,0.000023,14673816,4,1,1,0.00,16.000,35,32,0.041792,0.001383,17.148,14.698,1,-0.000017,-0.000104,0,0,0.998,0,1,rigid_body,0.1321,1,0.00077,0,-0.000658,0.010015,-0.016443,-0.006119,0.003189,0.003242,0.999971,-0.700,0.368,0.369
2025-12-24T00:55:52.975896,0.8764,-0.000667,0.010025,-0.016471,-0.000672,0.010021,-0.016478,0.300667,-0.010025,0.300000,0.000000,0.041834,0.001493,2.397,0.086,0.041793,0.000000,0.000041,0.001393,0.000074,0.000026,14673817,4,1,1,0.00,16.000,36,34,0.041767,0.001433,11.671,9.545,1,-0.000066,-0.000060,0,0,0.998,0,1,rigid_body,0.1321,1,0.00080,0,-0.000672,0.010021,-0.016478,-0.006375,0.002827,0.003511,0.999970,-0.729,0.327,0.400
2025-12-24T00:55:52.986414,0.8869,-0.000657,0.010025,-0.016467,-0.000635,0.010022,-0.016450,0.300657,-0.010025,0.300000,0.000000,0.041834,0.001493,2.397,0.086,0.041793,0.000000,0.000041,0.001393,0.000074,0.000026,14673818,4,1,1,0.00,0.000,37,35,0.041808,0.001488,16.622,4.467,1,-0.000025,-0.000006,0,0,0.998,0,1,rigid_body,0.1321,1,0.00080,0,-0.000635,0.010022,-0.016450,-0.006143,0.003080,0.002935,0.999972,-0.703,0.355,0.334
2025-12-24T00:55:52.996956,0.8974,-0.000664,0.010029,-0.016490,-0.000679,0.010038,-0.016533,0.300664,-0.010029,0.300000,0.000000,0.041787,0.001514,2.394,0.087,0.041792,0.000000,-0.000006,0.001394,0.000077,0.000043,14673819,4,1,1,0.00,15.000,38,35,0.041808,0.001488,16.622,15.009,1,0.000022,-0.000027,0,0,0.998,0,1,rigid_body,0.1321,1,0.00084,0,-0.000679,0.010038,-0.016533,-0.005642,0.002986,0.003763,0.999973,-0.645,0.345,0.429
2025-12-24T00:55:53.007509,0.9080,-0.000675,0.010028,-0.016502,-0.000704,0.010031,-0.016542,0.300675,-0.010028,0.300000,0.000000,0.041787,0.001514,2.394,0.087,0.041792,0.000000,-0.000006,0.001394,0.000077,0.000043,14673820,4,1,1,0.00,0.000,39,37,0.041834,0.001493,11.046,10.049,1,0.000047,-0.000021,0,0,0.998,0,1,rigid_body,0.1321,1,0.00084,0,-0.000704,0.010031,-0.016542,-0.005239,0.002741,0.003510,0.999976,-0.599,0.316,0.401
2025-12-24T00:55:53.018384,0.9188,-0.000671,0.010020,-0.016474,-0.000656,0.010000,-0.016396,0.300671,-0.010020,0.300000,0.000000,0.041839,0.001422,2.397,0.081,0.041793,0.000000,0.000046,0.001393,0.000080,-0.000051,14673821,4,1,1,0.00,16.000,40,38,0.041787,0.001514,15.918,5.511,1,-0.000052,0.000092,0,0,0.998,0,1,rigid_body,0.1321,1,0.00080,0,-0.000656,0.010000,-0.016396,-0.006227,0.003102,0.003107,0.999971,-0.712,0.358,0.354
2025-12-24T00:55:53.028941,0.9294,-0.000668,0.010019,-0.016466,-0.000662,0.010017,-0.016448,0.300668,-0.010019,0.300000,0.000000,0.041789,0.001447,2.394,0.083,0.041793,0.000000,-0.000004,0.001393,0.000084,-0.000029,14673822,4,1,1,0.00,16.000,41,39,0.041787,0.001514,21.432,0.000,1,-0.000003,0.000067,0,0,0.998,0,1,rigid_body,0.1321,1,0.00081,0,-0.000662,0.010017,-0.016448,-0.006793,0.002791,0.003310,0.999968,-0.777,0.322,0.377
2025-12-24T00:55:53.039552,0.9400,-0.000687,0.010028,-0.016483,-0.000722,0.010049,-0.016517,0.300687,-0.010028,0.300000,0.000000,0.041789,0.001447,2.394,0.083,0.041793,0.000000,-0.000004,0.001393,0.000084,-0.000029,14673823,4,1,1,0.00,0.000,42,39,0.041787,0.001514,,1.390,0,-0.000003,0.000067,0,0,0.998,0,1,rigid_body,0.1321,1,0.00083,0,-0.000722,0.010049,-0.016517,-0.005656,0.002699,0.003371,0.999975,-0.647,0.311,0.385
2025-12-24T00:55:53.049991,0.9505,-0.000688,0.010023,-0.016462,-0.000685,0.010021,-0.016458,0.300688,-0.010023,0.300000,0.000000,0.041848,0.001484,2.398,0.085,0.041796,0.000000,0.000053,0.001393,0.000090,0.000001,14673825,4,1,1,0.00,16.000,43,39,0.041787,0.001514,,11.829,0,-0.000062,0.000030,0,0,0.998,0,1,rigid_body,0.1322,1,0.00080,0,-0.000685,0.010021,-0.016458,-0.006334,0.002663,0.003262,0.999971,-0.725,0.307,0.372
2025-12-24T00:55:53.060955,0.9614,-0.000682,0.010024,-0.016473,-0.000660,0.010021,-0.016478,0.300682,-0.010024,0.300000,0.000000,0.041848,0.001484,2.398,0.085,0.041796,0.000000,0.000053,0.001393,0.000090,0.000001,14673826,4,1,1,0.00,0.000,44,42,0.041789,0.001447,20.663,0.740,1,-0.000059,-0.000037,0,0,0.998,0,1,rigid_body,0.1321,1,0.00079,0,-0.000660,0.010021,-0.016478,-0.006561,0.002734,0.003248,0.999969,-0.751,0.316,0.370
2025-12-24T00:55:53.071337,0.9718,-0.000686,0.010017,-0.016478,-0.000687,0.009998,-0.016483,0.300686,-0.010017,0.300000,0.000000,0.041795,0.001435,2.395,0.082,0.041795,0.000000,-0.000000,0.001392,0.000093,-0.000051,14673827,4,1,1,0.00,15.000,45,42,0.041789,0.001447,20.663,11.122,1,-0.000006,0.000013,0,0,0.998,0,1,rigid_body,0.1321,1,0.00080,0,-0.000687,0.009998,-0.016483,-0.005624,0.002802,0.003727,0.999973,-0.643,0.324,0.425
2025-12-24T00:55:53.081713,0.9822,-0.000690,0.010015,-0.016490,-0.000711,0.010019,-0.016526,0.300690,-0.010015,0.300000,0.000000,0.041832,0.001450,2.397,0.083,0.041796,0.000000,0.000036,0.001392,0.000096,-0.000038,14673828,4,1,1,0.00,16.000,46,44,0.041848,0.001484,14.408,6.350,1,0.000016,0.000034,0,0,0.998,0,1,rigid_body,0.1321,1,0.00082,0,-0.000711,0.010019,-0.016526,-0.005030,0.002710,0.003722,0.999977,-0.575,0.313,0.425
2025-12-24T00:55:53.092124,0.9926,-0.000689,0.010015,-0.016481,-0.000687,0.010018,-0.016454,0.300689,-0.010015,0.300000,0.000000,0.041832,0.001450,2.397,0.083,0.041796,0.000000,0.000036,0.001392,0.000096,-0.000038,14673829,4,1,1,0.00,0.000,47,45,0.041795,0.001435,19.837,1.065,1,-0.000037,-0.000015,0,0,0.998,0,1,rigid_body,0.1321,1,0.00079,0,-0.000687,0.010018,-0.016454,-0.006631,0.002523,0.003104,0.999970,-0.759,0.291,0.354
2025-12-24T00:55:53.102741,1.0032,-0.000704,0.010017,-0.016460,-0.000738,0.010022,-0.016408,0.300704,-0.010017,0.300000,0.000000,0.041919,0.001492,2.402,0.086,0.041798,0.000000,0.000121,0.001392,0.000099,0.000001,14673830,4,1,1,0.00,16.000,48,45,0.041795,0.001435,19.837,11.681,1,-0.000124,-0.000058,0,0,0.998,0,1,rigid_body,0.1321,1,0.00079,0,-0.000738,0.010022,-0.016408,-0.006863,0.001865,0.002956,0.999970,-0.786,0.216,0.337
2025-12-24T00:55:53.113331,1.0138,-0.000731,0.010006,-0.016452,-0.000778,0.009982,-0.016438,0.300731,-0.010006,0.300000,0.000000,0.042068,0.001402,2.410,0.080,0.041802,0.000000,0.000267,0.001391,0.000102,-0.000091,14673831,4,1,1,0.00,15.000,49,47,0.041832,0.001450,14.145,7.062,1,-0.000236,0.000048,0,0,0.998,0,1,rigid_body,0.1321,1,0.00080,0,-0.000778,0.009982,-0.016438,-0.006804,0.001542,0.003084,0.999971,-0.779,0.179,0.352
2025-12-24T00:55:53.124087,1.0245,-0.000767,0.009991,-0.016475,-0.000833,0.009956,-0.016536,0.300767,-0.009991,0.300000,0.000000,0.042068,0.001402,2.410,0.080,0.041802,0.000000,0.000267,0.001391,0.000102,-0.000091,14673832,4,1,1,0.00,0.000,50,48,0.041919,0.001492,18.688,2.659,1,-0.000150,0.000090,0,0,0.998,0,1,rigid_body,0.1321,1,0.00086,0,-0.000833,0.009956,-0.016536,-0.005454,0.001196,0.003560,0.999978,-0.624,0.139,0.407
2025-12-24T00:55:53.134841,1.0353,-0.000779,0.009945,-0.016472,-0.000790,0.009853,-0.016480,0.300779,-0.009945,0.300000,0.000000,0.042282,0.000992,2.423,0.057,0.041808,0.000000,0.000473,0.001382,0.000105,-0.000496,14673833,4,1,1,0.00,16.000,51,48,0.041919,0.001492,18.688,13.413,1,-0.000363,0.000500,0,0,0.998,0,1,rigid_body,0.1321,1,0.00081,0,-0.000790,0.009853,-0.016480,-0.006059,0.000592,0.003161,0.999977,-0.694,0.070,0.362
2025-12-24T00:55:53.145241,1.0457,-0.000786,0.009894,-0.016482,-0.000776,0.009801,-0.016500,0.300786,-0.009894,0.300000,0.000000,0.042282,0.000992,2.423,0.057,0.041808,0.000000,0.000473,0.001382,0.000105,-0.000496,14673834,4,1,1,0.00,0.000,52,48,0.041919,0.001492,,8.548,0,-0.000363,0.000500,0,0,0.998,0,1,rigid_body,0.1321,1,0.00083,0,-0.000776,0.009801,-0.016500,-0.005937,0.000540,0.003200,0.999977,-0.680,0.064,0.366
2025-12-24T00:55:53.155800,1.0563,-0.000775,0.009837,-0.016496,-0.000735,0.009747,-0.016505,0.300775,-0.009837,0.300000,0.000000,0.041965,0.000449,2.404,0.026,0.041808,0.000000,0.000157,0.001367,0.000109,-0.001027,14673835,4,1,1,0.00,16.000,53,51,0.042282,0.000992,17.438,3.520,1,0.000317,0.000543,0,0,0.998,0,1,rigid_body,0.1322,1,0.00080,0,-0.000735,0.009747,-0.016505,-0.006009,0.000783,0.003127,0.999977,-0.688,0.092,0.358
2025-12-24T00:55:53.166497,1.0670,-0.000765,0.009798,-0.016517,-0.000743,0.009751,-0.016547,0.300765,-0.009798,0.300000,0.000000,0.041786,0.000741,2.394,0.042,0.041806,0.000000,-0.000020,0.001362,0.000112,-0.000733,14673836,4,1,1,0.00,15.000,54,51,0.042282,0.000992,17.438,14.217,1,0.000496,0.000251,0,0,0.998,0,1,rigid_body,0.1323,1,0.00082,0,-0.000743,0.009751,-0.016547,-0.005184,0.000780,0.003550,0.999980,-0.594,0.092,0.406
2025-12-24T00:55:53.177054,1.0775,-0.000751,0.009757,-0.016526,-0.000740,0.009713,-0.016550,0.300751,-0.009757,0.300000,0.000000,0.041786,0.000741,2.394,0.042,0.041806,0.000000,-0.000020,0.001362,0.000112,-0.000733,14673837,4,1,1,0.00,0.000,55,52,0.042282,0.000992,22.259,9.554,1,0.000496,0.000251,0,0,0.998,0,1,rigid_body,0.1322,1,0.00081,0,-0.000740,0.009713,-0.016550,-0.004908,0.000944,0.003615,0.999981,-0.562,0.110,0.414
2025-12-24T00:55:53.187612,1.0881,-0.000737,0.009705,-0.016515,-0.000717,0.009615,-0.016478,0.300737,-0.009705,0.300000,0.000000,0.041582,0.000460,2.383,0.026,0.041802,0.000000,-0.000220,0.001349,0.000115,-0.001003,14673838,4,1,1,0.00,16.000,56,54,0.041786,0.000741,17.080,4.035,1,0.000203,0.000281,0,0,0.998,0,1,rigid_body,0.1322,1,0.00081,0,-0.000717,0.009615,-0.016478,-0.005728,0.001314,0.003019,0.999978,-0.656,0.153,0.345
2025-12-24T00:55:53.198135,1.0986,-0.000725,0.009660,-0.016505,-0.000710,0.009587,-0.016478,0.300725,-0.009660,0.300000,0.000000,0.041617,0.000689,2.384,0.040,0.041801,0.000000,-0.000184,0.001343,0.000118,-0.000771,14673839,4,1,1,0.00,15.000,57,54,0.041786,0.000741,17.080,14.559,1,0.000169,0.000051,0,0,0.998,0,1,rigid_body,0.1323,1,0.00082,0,-0.000710,0.009587,-0.016478,-0.005728,0.001687,0.002915,0.999978,-0.656,0.195,0.333
2025-12-24T00:55:53.208687,1.1091,-0.000725,0.009623,-0.016530,-0.000729,0.009567,-0.016586,0.300725,-0.009623,0.300000,0.000000,0.041617,0.000689,2.384,0.040,0.041801,0.000000,-0.000184,0.001343,0.000118,-0.000771,14673840,4,1,1,0.00,0.000,58,55,0.041786,0.000741,22.088,9.544,1,0.000169,0.000051,0,0,0.998,0,1,rigid_body,0.1322,1,0.00084,0,-0.000729,0.009567,-0.016586,-0.004602,0.001964,0.003822,0.999980,-0.527,0.227,0.437
2025-12-24T00:55:53.219215,1.1197,-0.000710,0.009587,-0.016515,-0.000679,0.009542,-0.016486,0.300710,-0.009587,0.300000,0.000000,0.041606,0.000587,2.384,0.034,0.041799,0.000000,-0.000192,0.001333,0.000121,-0.000867,14673841,4,1,1,0.00,16.000,59,57,0.041617,0.000689,16.557,4.523,1,0.000011,0.000103,0,0,0.998,0,1,rigid_body,0.1323,1,0.00082,0,-0.000679,0.009542,-0.016486,-0.005608,0.001970,0.002804,0.999978,-0.642,0.228,0.320
2025-12-24T00:55:53.230349,1.1308,-0.000700,0.009519,-0.016521,-0.000703,0.009467,-0.016537,0.300700,-0.009519,0.300000,0.000000,0.041649,0.000830,2.386,0.048,0.041797,0.000000,-0.000148,0.001328,0.000124,-0.000621,14673843,4,1,1,0.00,0.000,60,59,0.041606,0.000587,11.134,0.000,1,-0.000043,-0.000243,0,0,0.998,0,1,rigid_body,0.1322,1,0.00083,0,-0.000703,0.009467,-0.016537,-0.005276,0.001823,0.003333,0.999979,-0.604,0.211,0.381
2025-12-24T00:55:53.241019,1.1415,-0.000709,0.009480,-0.016532,-0.000732,0.009413,-0.016544,0.300709,-0.009480,0.300000,0.000000,0.041809,0.000621,2.395,0.036,0.041799,0.000000,0.000010,0.001318,0.000126,-0.000823,14673844,4,1,1,0.00,15.000,61,59,0.041606,0.000587,11.134,10.669,1,-0.000202,-0.000035,0,0,0.998,0,1,rigid_body,0.1322,1,0.00085,0,-0.000732,0.009413,-0.016544,-0.004773,0.001699,0.003570,0.999981,-0.546,0.197,0.408
2025-12-24T00:55:53.251660,1.1521,-0.000708,0.009431,-0.016533,-0.000713,0.009348,-0.016553,0.300708,-0.009431,0.300000,0.000000,0.041800,0.000738,2.395,0.042,0.041798,0.000000,0.000001,0.001311,0.000130,-0.000703,14673845,4,1,1,0.00,16.000,62,60,0.041649,0.000830,14.726,6.584,1,-0.000150,0.000092,0,0,0.998,0,1,rigid_body,0.1322,1,0.00082,0,-0.000713,0.009348,-0.016553,-0.004573,0.001804,0.003606,0.999981,-0.523,0.209,0.412
2025-12-24T00:55:53.262205,1.1627,-0.000710,0.009379,-0.016519,-0.000705,0.009293,-0.016472,0.300710,-0.009379,0.300000,0.000000,0.041800,0.000738,2.395,0.042,0.041798,0.000000,0.000001,0.001311,0.000130,-0.000703,14673846,4,1,1,0.00,0.000,63,61,0.041809,0.000621,19.677,1.509,1,0.000009,-0.000116,0,0,0.998,0,1,rigid_body,0.1322,1,0.00081,0,-0.000705,0.009293,-0.016472,-0.005555,0.002249,0.003271,0.999977,-0.636,0.260,0.373
2025-12-24T00:55:53.272804,1.1733,-0.000716,0.009318,-0.016507,-0.000722,0.009219,-0.016477,0.300716,-0.009318,0.300000,0.000000,0.041854,0.000276,2.398,0.016,0.041799,0.000000,0.000055,0.001295,0.000132,-0.001151,14673847,4,1,1,0.00,16.000,64,61,0.041809,0.000621,19.677,12.109,1,-0.000046,0.000345,0,0,0.998,0,1,rigid_body,0.1322,1,0.00083,0,-0.000722,0.009219,-0.016477,-0.005811,0.002411,0.003426,0.999974,-0.665,0.279,0.391
2025-12-24T00:55:53.283357,1.1838,-0.000729,0.009262,-0.016498,-0.000754,0.009180,-0.016487,0.300729,-0.009262,0.300000,0.000000,0.041854,0.000276,2.398,0.016,0.041799,0.000000,0.000055,0.001295,0.000132,-0.001151,14673848,4,1,1,0.00,0.000,65,61,0.041809,0.000621,19.677,22.661,1,-0.000046,0.000345,0,0,0.998,0,1,rigid_body,0.1322,1,0.00086,0,-0.000754,0.009180,-0.016487,-0.005837,0.002410,0.003303,0.999975,-0.668,0.278,0.377
2025-12-24T00:55:53.293887,1.1943,-0.000754,0.009205,-0.016512,-0.000811,0.009123,-0.016556,0.300754,-0.009205,0.300000,0.000000,0.042138,0.000038,2.414,0.002,0.041805,0.000000,0.000333,0.001280,0.000135,-0.001377,14673849,4,1,1,0.00,15.000,66,64,0.041854,0.000276,18.578,2.504,1,-0.000284,0.000238,0,0,0.998,0,1,rigid_body,0.1323,1,0.00086,0,-0.000811,0.009123,-0.016556,-0.004694,0.002094,0.003509,0.999981,-0.537,0.242,0.401
2025-12-24T00:55:53.304427,1.2049,-0.000777,0.009144,-0.016504,-0.000816,0.009049,-0.016500,0.300777,-0.009144,0.300000,0.000000,0.042117,0.000390,2.413,0.022,0.041808,0.000000,0.000309,0.001271,0.000138,-0.001019,14673850,4,1,1,0.00,16.000,67,64,0.041854,0.000276,,1.507,0,-0.000262,-0.000114,0,0,0.998,0,1,rigid_body,0.1323,1,0.00084,0,-0.000816,0.009049,-0.016500,-0.005955,0.002500,0.003465,0.999973,-0.681,0.289,0.395
2025-12-24T00:55:53.314982,1.2154,-0.000820,0.009080,-0.016527,-0.000895,0.008980,-0.016569,0.300820,-0.009080,0.300000,0.000000,0.042117,0.000390,2.413,0.022,0.041808,0.000000,0.000309,0.001271,0.000138,-0.001019,14673851,4,1,1,0.00,0.000,68,64,0.041854,0.000276,,12.062,0,-0.000262,-0.000114,0,0,0.998,0,1,rigid_body,0.1323,1,0.00078,0,-0.000895,0.008980,-0.016569,-0.005224,0.002705,0.002938,0.999978,-0.598,0.312,0.335
2025-12-24T00:55:53.325514,1.2260,-0.000839,0.009032,-0.016521,-0.000855,0.008965,-0.016494,0.300839,-0.009032,0.300000,0.000000,0.042451,0.000074,2.432,0.004,0.041817,0.000000,0.000635,0.001255,0.000141,-0.001322,14673852,4,1,1,0.00,15.000,69,67,0.042117,0.000390,18.073,3.015,1,-0.000335,0.000316,0,0,0.998,0,1,rigid_body,0.1323,1,0.00084,0,-0.000855,0.008965,-0.016494,-0.005845,0.002870,0.003271,0.999974,-0.669,0.331,0.373
2025-12-24T00:55:53.336126,1.2366,-0.000891,0.008992,-0.016552,-0.000980,0.008945,-0.016611,0.300891,-0.008992,0.300000,0.000000,0.042470,0.000556,2.433,0.032,0.041824,0.000000,0.000646,0.001250,0.000144,-0.000838,14673853,4,1,1,0.00,16.000,70,67,0.042117,0.000390,18.073,13.626,1,-0.000353,-0.000166,0,0,0.998,0,1,rigid_body,0.1324,1,0.00079,0,-0.000980,0.008945,-0.016611,-0.003890,0.002897,0.003441,0.999982,-0.445,0.333,0.393
2025-12-24T00:55:53.346673,1.2471,-0.000938,0.008949,-0.016570,-0.001022,0.008891,-0.016610,0.300938,-0.008949,0.300000,0.000000,0.042470,0.000556,2.433,0.032,0.041824,0.000000,0.000646,0.001250,0.000144,-0.000838,14673854,4,1,1,0.00,0.000,71,68,0.042117,0.000390,22.649,9.042,1,-0.000353,-0.000166,0,0,0.998,0,1,rigid_body,0.1323,1,0.00078,0,-0.001022,0.008891,-0.016610,-0.004212,0.002996,0.003642,0.999980,-0.481,0.345,0.416
2025-12-24T00:55:53.357431,1.2579,-0.000967,0.008899,-0.016561,-0.000996,0.008818,-0.016522,0.300967,-0.008899,0.300000,0.000000,0.042678,0.000341,2.445,0.020,0.041834,0.000000,0.000844,0.001237,0.000147,-0.001043,14673855,4,1,1,0.00,16.000,72,69,0.042451,0.000074,27.758,4.159,1,-0.000227,-0.000267,0,0,0.998,0,1,rigid_body,0.1324,1,0.00080,0,-0.000996,0.008818,-0.016522,-0.005486,0.003346,0.003036,0.999975,-0.628,0.385,0.346
2025-12-24T00:55:53.367995,1.2685,-0.000996,0.008851,-0.016544,-0.001039,0.008767,-0.016509,0.300996,-0.008851,0.300000,0.000000,0.042678,0.000341,2.445,0.020,0.041834,0.000000,0.000844,0.001237,0.000147,-0.001043,14673856,4,1,1,0.00,0.000,73,69,0.042451,0.000074,27.758,14.723,1,-0.000227,-0.000267,0,0,0.998,0,1,rigid_body,0.1323,1,0.00079,0,-0.001039,0.008767,-0.016509,-0.005294,0.003653,0.003156,0.999974,-0.605,0.421,0.359
2025-12-24T00:55:53.378727,1.2792,-0.001042,0.008818,-0.016562,-0.001105,0.008778,-0.016588,0.301042,-0.008818,0.300000,0.000000,0.042795,0.000298,2.452,0.017,0.041845,0.000000,0.000950,0.001226,0.000149,-0.001077,14673857,4,1,1,0.00,15.000,74,71,0.042470,0.000556,22.337,9.717,1,-0.000325,0.000259,0,0,0.998,0,1,rigid_body,0.1323,1,0.00081,0,-0.001105,0.008778,-0.016588,-0.004166,0.003333,0.003328,0.999980,-0.476,0.384,0.380
2025-12-24T00:55:53.389231,1.2897,-0.001068,0.008765,-0.016535,-0.001108,0.008681,-0.016489,0.301068,-0.008765,0.300000,0.000000,0.042427,0.000528,2.431,0.030,0.041848,0.000000,0.000579,0.001218,0.000152,-0.000842,14673858,4,1,1,0.00,16.000,75,73,0.042678,0.000341,16.389,4.848,1,0.000251,-0.000187,0,0,0.998,0,1,rigid_body,0.1324,1,0.00076,0,-0.001108,0.008681,-0.016489,-0.004190,0.003929,0.002558,0.999980,-0.479,0.451,0.291
2025-12-24T00:55:53.400474,1.3009,-0.001151,0.008658,-0.016517,-0.001229,0.008566,-0.016495,0.301151,-0.008658,0.300000,0.000000,0.042722,0.000208,2.448,0.012,0.041860,0.000000,0.000862,0.001203,0.000155,-0.001151,14673860,4,1,1,0.00,16.000,76,75,0.042427,0.000528,11.242,0.000,1,-0.000294,0.000320,0,0,0.999,0,1,rigid_body,0.1324,1,0.00074,0,-0.001229,0.008566,-0.016495,-0.005137,0.004305,0.002940,0.999973,-0.587,0.495,0.334
2025-12-24T00:55:53.411504,1.3120,-0.001215,0.008591,-0.016521,-0.001328,0.008472,-0.016527,0.301215,-0.008591,0.300000,0.000000,0.042742,0.000342,2.449,0.020,0.041869,0.000000,0.000874,0.001194,0.000157,-0.001009,14673861,4,1,1,0.00,15.000,77,75,0.042427,0.000528,11.242,11.030,1,-0.000315,0.000186,0,0,0.999,0,1,rigid_body,0.1324,1,0.00074,0,-0.001328,0.008472,-0.016527,-0.004085,0.004342,0.003295,0.999977,-0.466,0.499,0.376
2025-12-24T00:55:53.422000,1.3225,-0.001281,0.008516,-0.016526,-0.001394,0.008404,-0.016556,0.301281,-0.008516,0.300000,0.000000,0.042742,0.000342,2.449,0.020,0.041869,0.000000,0.000874,0.001194,0.000157,-0.001009,14673862,4,1,1,0.00,0.000,78,76,0.042722,0.000208,14.968,6.559,1,-0.000021,-0.000135,0,0,0.998,0,1,rigid_body,0.1323,1,0.00077,0,-0.001394,0.008404,-0.016556,-0.003494,0.004585,0.003203,0.999978,-0.399,0.527,0.365
2025-12-24T00:55:53.432700,1.3332,-0.001330,0.008414,-0.016501,-0.001391,0.008235,-0.016435,0.301330,-0.008414,0.300000,0.000000,0.043113,-0.000424,2.470,-0.024,0.041885,0.000000,0.001228,0.001170,0.000160,-0.001754,14673863,4,1,1,0.00,16.000,79,76,0.042722,0.000208,14.968,17.259,1,-0.000391,0.000632,0,0,0.998,0,1,rigid_body,0.1324,1,0.00078,0,-0.001391,0.008235,-0.016435,-0.004947,0.004883,0.002555,0.999973,-0.565,0.561,0.290
2025-12-24T00:55:53.443396,1.3439,-0.001381,0.008310,-0.016474,-0.001446,0.008139,-0.016421,0.301381,-0.008310,0.300000,0.000000,0.042796,-0.000239,2.452,-0.014,0.041892,0.000000,0.000904,0.001155,0.000163,-0.001557,14673864,4,1,1,0.00,15.000,80,76,0.042722,0.000208,14.968,27.954,1,-0.000074,0.000447,0,0,0.998,0,1,rigid_body,0.1325,1,0.00078,0,-0.001446,0.008139,-0.016421,-0.004967,0.004918,0.002703,0.999972,-0.568,0.565,0.307
2025-12-24T00:55:53.454249,1.3547,-0.001420,0.008190,-0.016443,-0.001464,0.007998,-0.016379,0.301420,-0.008190,0.300000,0.000000,0.042796,-0.000239,2.452,-0.014,0.041892,0.000000,0.000904,0.001155,0.000163,-0.001557,14673865,4,1,1,0.00,0.000,81,79,0.043113,-0.000424,13.350,8.198,1,0.000317,-0.000185,0,0,0.998,0,1,rigid_body,0.1324,1,0.00077,0,-0.001464,0.007998,-0.016379,-0.004699,0.005016,0.002913,0.999972,-0.537,0.576,0.331
2025-12-24T00:55:53.464813,1.3653,-0.001471,0.008072,-0.016429,-0.001557,0.007889,-0.016423,0.301471,-0.008072,0.300000,0.000000,0.042953,-0.001156,2.461,-0.066,0.041904,0.000000,0.001049,0.001122,0.000165,-0.002443,14673866,4,1,1,0.00,16.000,82,80,0.042796,-0.000239,18.400,3.017,1,-0.000157,0.000917,0,0,0.999,0,1,rigid_body,0.1326,1,0.00073,0,-0.001557,0.007889,-0.016423,-0.002445,0.005264,0.003772,0.999976,-0.278,0.604,0.431
2025-12-24T00:55:53.475420,1.3759,-0.001488,0.007933,-0.016385,-0.001505,0.007718,-0.016325,0.301488,-0.007933,0.300000,0.000000,0.042460,-0.000771,2.433,-0.044,0.041907,0.000000,0.000553,0.001103,0.000168,-0.002041,14673867,4,1,1,0.00,16.000,83,80,0.042796,-0.000239,18.400,13.624,1,0.000336,0.000532,0,0,0.998,0,1,rigid_body,0.1327,1,0.00077,0,-0.001505,0.007718,-0.016325,-0.002739,0.005043,0.003666,0.999977,-0.312,0.579,0.419
2025-12-24T00:55:53.486107,1.3866,-0.001487,0.007793,-0.016326,-0.001458,0.007570,-0.016210,0.301487,-0.007793,0.300000,0.000000,0.042460,-0.000771,2.433,-0.044,0.041907,0.000000,0.000553,0.001103,0.000168,-0.002041,14673868,4,1,1,0.00,0.000,84,82,0.042953,-0.001156,12.113,9.181,1,0.000493,-0.000386,0,0,0.999,0,1,rigid_body,0.1325,1,0.00075,0,-0.001458,0.007570,-0.016210,-0.003419,0.004618,0.004156,0.999975,-0.390,0.531,0.474
2025-12-24T00:55:53.496525,1.3970,-0.001492,0.007652,-0.016262,-0.001491,0.007437,-0.016144,0.301492,-0.007652,0.300000,0.000000,0.042163,-0.001870,2.416,-0.107,0.041907,0.000000,0.000256,0.001064,0.000170,-0.003104,14673869,4,1,1,0.00,15.000,85,83,0.042460,-0.000771,17.071,4.034,1,0.000297,0.001099,0,0,0.998,0,1,rigid_body,0.1327,1,0.00077,0,-0.001491,0.007437,-0.016144,-0.002749,0.004559,0.004097,0.999977,-0.313,0.524,0.468
2025-12-24T00:55:53.507114,1.4076,-0.001498,0.007498,-0.016204,-0.001504,0.007255,-0.016110,0.301498,-0.007498,0.300000,0.000000,0.042163,-0.001870,2.416,-0.107,0.041907,0.000000,0.000256,0.001064,0.000170,-0.003104,14673870,4,1,1,0.00,0.000,86,83,0.042460,-0.000771,17.071,14.623,1,0.000297,0.001099,0,0,0.998,0,1,rigid_body,0.1326,1,0.00083,0,-0.001504,0.007255,-0.016110,-0.000675,0.004748,0.003935,0.999981,-0.075,0.544,0.451
2025-12-24T00:55:53.517583,1.4180,-0.001505,0.007324,-0.016120,-0.001536,0.007047,-0.015994,0.301505,-0.007324,0.300000,0.000000,0.042107,-0.002566,2.413,-0.147,0.041909,0.000000,0.000198,0.001018,0.000172,-0.003756,14673871,4,1,1,0.00,16.000,87,85,0.042163,-0.001870,11.096,9.963,1,0.000056,0.000696,0,0,0.998,0,1,rigid_body,0.1328,1,0.00082,0,-0.001536,0.007047,-0.015994,0.001663,0.004900,0.004283,0.999977,0.193,0.561,0.492
2025-12-24T00:55:53.528166,1.4286,-0.001497,0.007123,-0.015976,-0.001479,0.006789,-0.015716,0.301497,-0.007123,0.300000,0.000000,0.041926,-0.001873,2.402,-0.107,0.041908,0.000000,0.000018,0.000990,0.000175,-0.003038,14673872,4,1,1,0.00,16.000,88,85,0.042163,-0.001870,11.096,20.545,1,0.000237,0.000003,0,0,0.998,0,1,rigid_body,0.1329,1,0.00078,0,-0.001479,0.006789,-0.015716,0.001772,0.004927,0.003772,0.999979,0.205,0.564,0.433
2025-12-24T00:55:53.538843,1.4393,-0.001503,0.006884,-0.015832,-0.001506,0.006482,-0.015578,0.301503,-0.006884,0.300000,0.000000,0.041926,-0.001873,2.402,-0.107,0.041908,0.000000,0.000018,0.000990,0.000175,-0.003038,14673873,4,1,1,0.00,0.000,89,87,0.042107,-0.002566,21.260,0.000,1,0.000181,-0.000693,0,0,0.998,0,1,rigid_body,0.1328,1,0.00076,0,-0.001506,0.006482,-0.015578,0.003096,0.004791,0.003635,0.999977,0.357,0.548,0.418
2025-12-24T00:55:53.549749,1.4502,-0.001505,0.006631,-0.015696,-0.001507,0.006225,-0.015483,0.301505,-0.006631,0.300000,0.000000,0.041985,-0.004132,2.406,-0.237,0.041909,0.000000,0.000076,0.000922,0.000177,-0.005230,14673874,4,1,1,0.00,15.000,90,87,0.042107,-0.002566,21.260,10.906,1,0.000121,0.001566,0,0,0.998,0,1,rigid_body,0.1331,1,0.00080,0,-0.001507,0.006225,-0.015483,0.004529,0.004678,0.003931,0.999971,0.521,0.534,0.453
2025-12-24T00:55:53.561031,1.4615,-0.001424,0.006072,-0.015242,-0.001336,0.005607,-0.014859,0.301424,-0.006072,0.300000,0.000000,0.041679,-0.003035,2.388,-0.174,0.041905,0.000000,-0.000225,0.000885,0.000179,-0.004099,14673876,4,1,1,0.00,0.000,91,89,0.041926,-0.001873,15.494,6.694,1,0.000246,0.001162,0,0,0.998,0,1,rigid_body,0.1331,1,0.00081,0,-0.001336,0.005607,-0.014859,0.002850,0.005458,0.002789,0.999977,0.328,0.624,0.321
2025-12-24T00:55:53.571540,1.4720,-0.001323,0.005771,-0.014970,-0.001113,0.005306,-0.014499,0.301323,-0.005771,0.300000,0.000000,0.040578,-0.005532,2.325,-0.317,0.041884,0.000000,-0.001306,0.000802,0.000180,-0.006515,14673877,4,1,1,0.00,15.000,92,90,0.041985,-0.004132,20.283,1.508,1,0.001407,0.001400,0,0,0.998,0,1,rigid_body,0.1335,1,0.00086,0,-0.001113,0.005306,-0.014499,0.002888,0.005197,0.003287,0.999977,0.333,0.594,0.378
2025-12-24T00:55:53.581809,1.4823,-0.001229,0.005469,-0.014667,-0.001074,0.005001,-0.014168,0.301229,-0.005469,0.300000,0.000000,0.040633,-0.003972,2.328,-0.228,0.041871,0.000000,-0.001238,0.000760,0.000182,-0.004915,14673878,4,1,1,0.00,16.000,93,90,0.041985,-0.004132,20.283,11.777,1,0.001352,-0.000160,0,0,0.998,0,1,rigid_body,0.1339,1,0.00085,0,-0.001074,0.005001,-0.014168,0.004340,0.005417,0.003812,0.999969,0.500,0.619,0.440
2025-12-24T00:55:53.592300,1.4928,-0.001091,0.005125,-0.014291,-0.000863,0.004577,-0.013687,0.301091,-0.005125,0.300000,0.000000,0.040633,-0.003972,2.328,-0.228,0.041871,0.000000,-0.001238,0.000760,0.000182,-0.004915,14673879,4,1,1,0.00,0.000,94,92,0.040578,-0.005532,14.222,6.539,1,-0.000055,-0.001560,0,0,0.998,0,1,rigid_body,0.1336,1,0.00086,0,-0.000863,0.004577,-0.013687,0.004752,0.005208,0.004104,0.999967,0.547,0.594,0.473
2025-12-24T00:55:53.602993,1.5035,-0.000929,0.004754,-0.013861,-0.000655,0.004167,-0.013140,0.300929,-0.004754,0.300000,0.000000,0.039034,-0.006593,2.236,-0.378,0.041829,0.000000,-0.002795,0.000661,0.000184,-0.007438,14673880,4,1,1,0.00,16.000,95,93,0.040633,-0.003972,19.570,1.616,1,0.001599,0.002621,0,0,0.998,0,1,rigid_body,0.1341,1,0.00082,0,-0.000655,0.004167,-0.013140,0.004131,0.006312,0.003108,0.999967,0.476,0.722,0.359
2025-12-24T00:55:53.613632,1.5141,-0.000768,0.004358,-0.013373,-0.000526,0.003721,-0.012574,0.300768,-0.004358,0.300000,0.000000,0.039376,-0.005416,2.256,-0.310,0.041807,0.000000,-0.002431,0.000606,0.000185,-0.006207,14673881,4,1,1,0.00,15.000,96,93,0.040633,-0.003972,19.570,12.254,1,0.001257,0.001444,0,0,0.998,0,1,rigid_body,0.1346,1,0.00078,0,-0.000526,0.003721,-0.012574,0.004324,0.006041,0.003058,0.999968,0.498,0.691,0.353
2025-12-24T00:55:53.624174,1.5246,-0.000589,0.003941,-0.012803,-0.000289,0.003286,-0.011856,0.300589,-0.003941,0.300000,0.000000,0.039376,-0.005416,2.256,-0.310,0.041807,0.000000,-0.002431,0.000606,0.000185,-0.006207,14673882,4,1,1,0.00,0.000,97,93,0.040633,-0.003972,19.570,22.796,1,0.001257,0.001444,0,0,0.998,0,1,rigid_body,0.1342,1,0.00080,0,-0.000289,0.003286,-0.011856,0.004639,0.006192,0.002468,0.999967,0.533,0.708,0.286
2025-12-24T00:55:53.634693,1.5352,-0.000395,0.003524,-0.012192,-0.000103,0.002900,-0.011224,0.300395,-0.003524,0.300000,0.000000,0.037932,-0.008184,2.173,-0.469,0.041755,0.000000,-0.003823,0.000490,0.000186,-0.008860,14673883,4,1,1,0.00,16.000,98,96,0.039376,-0.005416,18.549,2.512,1,0.001444,0.002767,0,0,0.998,0,1,rigid_body,0.1350,1,0.00084,0,-0.000103,0.002900,-0.011224,0.006991,0.005388,0.002932,0.999957,0.803,0.615,0.340
2025-12-24T00:55:53.645482,1.5459,-0.000203,0.003101,-0.011489,0.000089,0.002461,-0.010353,0.300203,-0.003101,0.300000,0.000000,0.037932,-0.008184,2.173,-0.469,0.041755,0.000000,-0.003823,0.000490,0.000186,-0.008860,14673884,4,1,1,0.00,0.000,99,96,0.039376,-0.005416,18.549,13.301,1,0.001444,0.002767,0,0,0.999,0,1,rigid_body,0.1346,1,0.00074,0,0.000089,0.002461,-0.010353,0.005702,0.005418,0.001206,0.999968,0.654,0.620,0.142
2025-12-24T00:55:53.656105,1.5566,-0.000011,0.002672,-0.010757,0.000287,0.002021,-0.009602,0.300011,-0.002672,0.300000,0.000000,0.037237,-0.009507,2.134,-0.545,0.041702,0.000000,-0.004465,0.000371,0.000187,-0.010065,14673885,4,1,1,0.00,16.000,100,98,0.037932,-0.008184,12.809,8.603,1,0.000695,0.001323,0,0,0.999,0,1,rigid_body,0.1356,1,0.00075,0,0.000287,0.002021,-0.009602,0.006023,0.005719,-0.000231,0.999965,0.690,0.655,-0.023
2025-12-24T00:55:53.666724,1.5672,0.000201,0.002247,-0.009938,0.000525,0.001601,-0.008634,0.299799,-0.002247,0.300000,0.000000,0.038246,-0.006997,2.191,-0.401,0.041672,0.000090,-0.003516,0.000312,0.000188,-0.007497,14673886,4,1,1,0.00,15.000,101,99,0.037932,-0.008184,17.191,4.051,1,-0.000314,-0.001187,0,0,0.998,0,1,rigid_body,0.1363,1,0.00082,0,0.000525,0.001601,-0.008634,0.005547,0.005909,-0.000917,0.999967,0.635,0.678,-0.101
2025-12-24T00:55:53.677472,1.5779,0.000428,0.001824,-0.009066,0.000793,0.001180,-0.007675,0.299572,-0.001824,0.300000,0.000000,0.038246,-0.006997,2.191,-0.401,0.041672,0.000090,-0.003516,0.000312,0.000188,-0.007497,14673887,4,1,1,0.00,0.000,102,99,0.037932,-0.008184,17.191,14.800,1,-0.000314,-0.001187,0,0,0.998,0,1,rigid_body,0.1356,1,0.00089,0,0.000793,0.001180,-0.007675,0.007301,0.006234,-0.001135,0.999953,0.836,0.715,-0.125
2025-12-24T00:55:53.687980,1.5884,0.000665,0.001384,-0.008129,0.001039,0.000713,-0.006663,0.299335,-0.001384,0.300000,0.000000,0.036839,-0.009218,2.111,-0.528,0.041608,0.000186,-0.004954,0.000192,0.000188,-0.009599,14673888,4,1,1,0.00,16.000,103,101,0.038246,-0.006997,11.874,9.383,1,0.001406,0.002222,0,0,0.998,0,1,rigid_body,0.1366,1,0.00090,0,0.001039,0.000713,-0.006663,0.005562,0.006075,-0.000198,0.999966,0.637,0.696,-0.019
2025-12-24T00:55:53.698555,1.5990,0.000928,0.000921,-0.007153,0.001349,0.000200,-0.005616,0.299072,-0.000921,0.300000,0.000000,0.037716,-0.007299,2.161,-0.418,0.041571,0.000275,-0.004130,0.000128,0.000188,-0.007615,14673889,4,1,1,0.00,15.000,104,102,0.038246,-0.006997,16.553,4.529,1,0.000529,0.000302,0,0,0.998,0,1,rigid_body,0.1374,1,0.00085,0,0.001349,0.000200,-0.005616,0.007154,0.005794,-0.002665,0.999954,0.818,0.666,-0.301
2025-12-24T00:55:53.709095,1.6096,0.001228,0.000464,-0.006116,0.001712,-0.000238,-0.004509,0.298772,-0.000464,0.300000,0.000000,0.037716,-0.007299,2.161,-0.418,0.041571,0.000275,-0.004130,0.000128,0.000188,-0.007615,14673890,4,1,1,0.00,0.000,105,102,0.038246,-0.006997,16.553,15.069,1,0.000529,0.000302,0,0,0.998,0,1,rigid_body,0.1365,1,0.00080,0,0.001712,-0.000238,-0.004509,0.007345,0.005819,-0.002126,0.999954,0.840,0.669,-0.239
2025-12-24T00:55:53.719689,1.6201,0.001541,0.000018,-0.005026,0.002035,-0.000647,-0.003322,0.298459,-0.000018,0.300000,0.000000,0.035517,-0.009760,2.035,-0.559,0.041486,0.000371,-0.006339,0.000003,0.000188,-0.009951,14673891,4,1,1,0.00,16.000,106,103,0.036839,-0.009218,22.651,9.057,1,0.001322,0.000542,0,0,0.998,0,1,rigid_body,0.1376,1,0.00091,0,0.002035,-0.000647,-0.003322,0.007495,0.006006,-0.002288,0.999951,0.857,0.690,-0.257
2025-12-24T00:55:53.730248,1.6307,0.002226,-0.000939,-0.002764,0.002768,-0.001656,-0.000978,0.297774,0.000939,0.300000,0.000000,0.036813,-0.007562,2.109,-0.433,0.041439,0.000466,-0.005093,-0.000065,0.000188,-0.007685,14673893,4,1,1,0.00,0.000,107,105,0.037716,-0.007299,16.623,4.530,1,0.000903,0.000263,0,0,0.998,0,1,rigid_body,0.1374,1,0.00084,0,0.002768,-0.001656,-0.000978,0.010493,0.007576,-0.005161,0.999903,1.198,0.874,-0.582
2025-12-24T00:55:53.741246,1.6417,0.002640,-0.001399,-0.001526,0.003311,-0.002097,0.000409,0.297360,0.001399,0.300000,0.000000,0.033604,-0.010700,1.925,-0.613,0.041333,0.000556,-0.008285,-0.000195,0.000188,-0.010693,14673894,4,1,1,0.00,15.000,108,106,0.035517,-0.009760,20.550,1.007,1,0.001914,0.000940,0,0,0.998,0,1,rigid_body,0.1383,1,0.00077,0,0.003311,-0.002097,0.000409,0.011335,0.007171,-0.004608,0.999900,1.295,0.828,-0.519
2025-12-24T00:55:53.751870,1.6523,0.003111,-0.001853,-0.000212,0.003891,-0.002530,0.001860,0.296889,0.001853,0.300000,0.000000,0.033604,-0.010700,1.925,-0.613,0.041333,0.000556,-0.008285,-0.000195,0.000188,-0.010693,14673895,4,1,1,0.00,0.000,109,106,0.035517,-0.009760,20.550,11.632,1,0.001914,0.000940,0,0,0.998,0,1,rigid_body,0.1374,1,0.00092,0,0.003891,-0.002530,0.001860,0.008466,0.006512,-0.004043,0.999935,0.967,0.750,-0.457
2025-12-24T00:55:53.762462,1.6629,0.003534,-0.002329,0.001139,0.004169,-0.003043,0.003252,0.296466,0.002329,0.300000,0.000000,0.031707,-0.011524,1.817,-0.660,0.041209,0.000650,-0.010152,-0.000324,0.000187,-0.011388,14673896,4,1,1,0.00,16.000,110,108,0.033604,-0.010700,15.686,5.530,1,0.001897,0.000825,0,0,0.998,0,1,rigid_body,0.1391,1,0.00081,0,0.004169,-0.003043,0.003252,0.010882,0.007922,-0.005916,0.999892,1.242,0.915,-0.668
2025-12-24T00:55:53.773033,1.6735,0.004042,-0.002802,0.002534,0.004847,-0.003535,0.004679,0.295958,0.002802,0.300000,0.000000,0.033942,-0.008378,1.945,-0.480,0.041138,0.000745,-0.007941,-0.000389,0.000186,-0.008175,14673897,4,1,1,0.00,16.000,111,109,0.033604,-0.010700,21.244,0.000,1,-0.000338,-0.002321,0,0,0.998,0,1,rigid_body,0.1403,1,0.00083,0,0.004847,-0.003535,0.004679,0.012263,0.008244,-0.008056,0.999858,1.398,0.956,-0.912
2025-12-24T00:55:53.783598,1.6841,0.004553,-0.003290,0.003968,0.005326,-0.004047,0.006153,0.295447,0.003290,0.300000,0.000000,0.033942,-0.008378,1.945,-0.480,0.041138,0.000745,-0.007941,-0.000389,0.000186,-0.008175,14673898,4,1,1,0.00,0.000,112,109,0.033604,-0.010700,21.244,10.566,1,-0.000338,-0.002321,0,0,0.998,0,1,rigid_body,0.1388,1,0.00086,0,0.005326,-0.004047,0.006153,0.012482,0.008849,-0.007417,0.999856,1.423,1.025,-0.837
2025-12-24T00:55:53.794150,1.6946,0.005098,-0.003769,0.005478,0.005954,-0.004493,0.007818,0.294902,0.003769,0.300000,0.000000,0.030030,-0.011497,1.721,-0.659,0.040991,0.000834,-0.011795,-0.000524,0.000185,-0.011158,14673899,4,1,1,0.00,15.000,113,109,0.033604,-0.010700,,5.537,0,0.003574,0.000798,0,0,0.998,0,1,rigid_body,0.1400,1,0.00100,0,0.005954,-0.004493,0.007818,0.011560,0.008420,-0.007351,0.999871,1.318,0.974,-0.831
2025-12-24T00:55:53.804717,1.7052,0.005661,-0.004255,0.007121,0.006569,-0.004982,0.009743,0.294339,0.004255,0.300000,0.000000,0.032814,-0.008591,1.880,-0.492,0.040913,0.000928,-0.009027,-0.000591,0.000184,-0.008183,14673900,4,1,1,0.00,16.000,114,113,0.030030,-0.011497,10.567,0.000,1,-0.002784,-0.002906,0,0,0.998,0,1,rigid_body,0.1412,1,0.00094,0,0.006569,-0.004982,0.009743,0.006417,0.008163,-0.004901,0.999934,0.731,0.939,-0.556
2025-12-24T00:55:53.815486,1.7159,0.006239,-0.004756,0.008709,0.007098,-0.005523,0.011134,0.293761,0.004756,0.300000,0.000000,0.032814,-0.008591,1.880,-0.492,0.040913,0.000928,-0.009027,-0.000591,0.000184,-0.008183,14673901,4,1,1,0.00,0.000,115,113,0.030030,-0.011497,10.567,10.769,1,-0.002784,-0.002906,0,0,0.998,0,1,rigid_body,0.1396,1,0.00080,0,0.007098,-0.005523,0.011134,0.009833,0.009016,-0.005345,0.999897,1.121,1.039,-0.602
2025-12-24T00:55:53.826002,1.7265,0.006869,-0.005236,0.010373,0.007873,-0.005953,0.012920,0.293131,0.005236,0.300000,0.000000,0.028290,-0.011821,1.621,-0.677,0.040745,0.001016,-0.013471,-0.000728,0.000182,-0.011275,14673902,4,1,1,0.00,15.000,116,114,0.032814,-0.008591,15.746,5.539,1,0.004523,0.003230,0,0,0.998,0,1,rigid_body,0.1410,1,0.00097,0,0.007873,-0.005953,0.012920,0.008405,0.008936,-0.006120,0.999906,0.957,1.030,-0.693
2025-12-24T00:55:53.837015,1.7375,0.007475,-0.005720,0.012073,0.008382,-0.006458,0.014649,0.292525,0.005720,0.300000,0.000000,0.031747,-0.008831,1.819,-0.506,0.040661,0.001109,-0.010023,-0.000795,0.000180,-0.008216,14673903,4,1,1,0.00,16.000,117,115,0.032814,-0.008591,20.523,1.006,1,0.001067,0.000240,0,0,0.998,0,1,rigid_body,0.1422,1,0.00094,0,0.008382,-0.006458,0.014649,0.010019,0.009882,-0.007680,0.999871,1.140,1.141,-0.869
2025-12-24T00:55:53.847567,1.7480,0.008101,-0.006174,0.013843,0.009059,-0.006833,0.016564,0.291899,0.006174,0.300000,0.000000,0.031747,-0.008831,1.819,-0.506,0.040661,0.001109,-0.010023,-0.000795,0.000180,-0.008216,14673904,4,1,1,0.00,0.000,118,115,0.032814,-0.008591,20.523,11.557,1,0.001067,0.000240,0,0,0.998,0,1,rigid_body,0.1404,1,0.00084,0,0.009059,-0.006833,0.016564,0.010700,0.009285,-0.008935,0.999860,1.217,1.075,-1.013
2025-12-24T00:55:53.858395,1.7589,0.008797,-0.006659,0.015629,0.009906,-0.007395,0.018429,0.291203,0.006659,0.300000,0.000000,0.027560,-0.011213,1.579,-0.642,0.040477,0.001203,-0.014120,-0.000926,0.000178,-0.010465,14673905,4,1,1,0.00,16.000,119,117,0.031747,-0.008831,14.353,7.027,1,0.004187,0.002382,0,0,0.998,0,1,rigid_body,0.1420,1,0.00084,0,0.009906,-0.007395,0.018429,0.008369,0.007672,-0.007457,0.999908,0.952,0.886,-0.847
2025-12-24T00:55:53.868939,1.7694,0.009415,-0.007162,0.017298,0.010303,-0.007956,0.019725,0.290585,0.007162,0.300000,0.000000,0.030991,-0.009112,1.776,-0.522,0.040391,0.001290,-0.010690,-0.000995,0.000176,-0.008292,14673906,4,1,1,0.00,15.000,120,117,0.031747,-0.008831,14.353,17.571,1,0.000756,0.000280,0,0,0.999,0,1,rigid_body,0.1430,1,0.00048,0,0.010303,-0.007956,0.019725,0.018475,0.007858,-0.014183,0.999698,2.104,0.930,-1.609
2025-12-24T00:55:53.879380,1.7798,0.010167,-0.007561,0.019122,0.011398,-0.008104,0.021926,0.289833,0.007561,0.300000,0.000000,0.030991,-0.009112,1.776,-0.522,0.040391,0.001290,-0.010690,-0.000995,0.000176,-0.008292,14673907,4,1,1,0.00,0.000,121,117,0.031747,-0.008831,14.353,28.012,1,0.000756,0.000280,0,0,0.998,0,1,rigid_body,0.1410,1,0.00083,0,0.011398,-0.008104,0.021926,0.013691,0.007553,-0.009819,0.999830,1.561,0.881,-1.113
2025-12-24T00:55:53.890462,1.7909,0.010965,-0.007961,0.021008,0.012231,-0.008535,0.023925,0.289035,0.007961,0.300000,0.000000,0.025421,-0.010365,1.457,-0.594,0.040176,0.001382,-0.016137,-0.001107,0.000173,-0.009432,14673909,4,1,1,0.00,16.000,122,120,0.030991,-0.009112,13.439,8.084,1,0.005569,0.001253,0,0,0.998,0,1,rigid_body,0.1426,1,0.00094,0,0.012737,-0.009178,0.025274,0.021029,0.007550,-0.013394,0.999661,2.398,0.897,-1.517
2025-12-24T00:55:53.901509,1.8020,0.012529,-0.008774,0.024555,0.013899,-0.009223,0.027395,0.287471,0.008774,0.300000,0.000000,0.023018,-0.011044,1.319,-0.633,0.039959,0.001474,-0.018415,-0.001220,0.000171,-0.009995,14673910,4,1,1,0.00,16.000,123,121,0.030991,-0.009112,18.370,3.759,1,0.007973,0.001932,0,0,0.998,0,1,rigid_body,0.1429,1,0.00085,0,0.013899,-0.009223,0.027395,0.017447,0.008157,-0.011474,0.999749,1.989,0.958,-1.298
2025-12-24T00:55:53.912109,1.8126,0.013369,-0.009173,0.026355,0.014600,-0.009827,0.028977,0.286631,0.009173,0.300000,0.000000,0.027183,-0.008361,1.557,-0.479,0.039842,0.001560,-0.014219,-0.001275,0.000168,-0.007254,14673911,4,1,1,0.00,15.000,124,121,0.030991,-0.009112,18.370,14.359,1,0.003808,-0.000750,0,0,0.999,0,1,rigid_body,0.1439,1,0.00046,0,0.014600,-0.009827,0.028977,0.023661,0.007288,-0.015214,0.999578,2.699,0.876,-1.723
2025-12-24T00:55:53.922455,1.8229,0.014213,-0.009563,0.028140,0.015527,-0.010124,0.030845,0.285787,0.009563,0.300000,0.000000,0.027183,-0.008361,1.557,-0.479,0.039842,0.001560,-0.014219,-0.001275,0.000168,-0.007254,14673912,4,1,1,0.00,0.000,125,122,0.025421,-0.010365,23.666,8.835,1,-0.001762,-0.002003,0,0,0.999,0,1,rigid_body,0.1418,1,0.00052,0,0.015527,-0.010124,0.030845,0.023863,0.006851,-0.015399,0.999573,2.723,0.827,-1.746
2025-12-24T00:55:53.933151,1.8336,0.015145,-0.009909,0.029963,0.016654,-0.010382,0.032812,0.284855,0.009909,0.300000,0.000000,0.021965,-0.009738,1.259,-0.558,0.039595,0.001651,-0.019281,-0.001377,0.000165,-0.008525,14673913,4,1,1,0.00,16.000,126,124,0.027183,-0.008361,16.887,4.155,1,0.005218,0.001376,0,0,0.999,0,1,rigid_body,0.1433,1,0.00046,0,0.016654,-0.010382,0.032812,0.023871,0.007225,-0.016670,0.999550,2.722,0.873,-1.890
2025-12-24T00:55:53.943617,1.8441,0.016145,-0.010200,0.031779,0.017681,-0.010640,0.034477,0.283855,0.010200,0.300000,0.000000,0.025321,-0.007046,1.451,-0.404,0.039456,0.001736,-0.015872,-0.001418,0.000162,-0.005789,14673914,4,1,1,0.00,15.000,127,124,0.027183,-0.008361,16.887,14.621,1,0.001862,-0.001316,0,0,0.999,0,1,rigid_body,0.1443,1,0.00048,0,0.017681,-0.010640,0.034477,0.024510,0.006277,-0.015302,0.999563,2.798,0.762,-1.736
2025-12-24T00:55:53.954178,1.8546,0.017282,-0.010414,0.033680,0.019167,-0.010610,0.036655,0.282718,0.010414,0.300000,0.000000,0.025321,-0.007046,1.451,-0.404,0.039456,0.001736,-0.015872,-0.001418,0.000162,-0.005789,14673915,4,1,1,0.00,0.000,128,125,0.027183,-0.008361,21.669,10.053,1,0.001862,-0.001316,0,0,0.998,0,1,rigid_body,0.1420,1,0.00093,0,0.019167,-0.010610,0.036655,0.019029,0.006283,-0.012025,0.999727,2.172,0.746,-1.364
2025-12-24T00:55:53.964852,1.8653,0.018361,-0.010686,0.035527,0.019996,-0.011121,0.038290,0.281639,0.010686,0.300000,0.000000,0.017673,-0.007356,1.013,-0.421,0.039148,0.001827,-0.023301,-0.001485,0.000158,-0.006029,14673916,4,1,1,0.00,16.000,129,126,0.021965,-0.009738,28.835,3.009,1,0.004292,-0.002382,0,0,0.999,0,1,rigid_body,0.1438,1,0.00048,0,0.019996,-0.011121,0.038290,0.024057,0.006476,-0.016891,0.999547,2.744,0.788,-1.917
2025-12-24T00:55:53.975456,1.8759,0.019510,-0.010927,0.037364,0.021254,-0.011305,0.040111,0.280490,0.010927,0.300000,0.000000,0.022797,-0.005626,1.306,-0.322,0.038988,0.001916,-0.018108,-0.001519,0.000155,-0.004262,14673917,4,1,1,0.00,16.000,130,129,0.017673,-0.007356,10.603,0.000,1,-0.005124,-0.001730,0,0,0.999,0,1,rigid_body,0.1450,1,0.00050,0,0.021254,-0.011305,0.040111,0.023620,0.006265,-0.017805,0.999543,2.694,0.766,-2.023
2025-12-24T00:55:53.986036,1.8865,0.020677,-0.011116,0.039169,0.022455,-0.011379,0.041882,0.279323,0.011116,0.300000,0.000000,0.022797,-0.005626,1.306,-0.322,0.038988,0.001916,-0.018108,-0.001519,0.000155,-0.004262,14673918,4,1,1,0.00,0.000,131,129,0.017673,-0.007356,10.603,10.581,1,-0.005124,-0.001730,0,0,0.999,0,1,rigid_body,0.1426,1,0.00050,0,0.022455,-0.011379,0.041882,0.024575,0.005553,-0.017589,0.999528,2.805,0.686,-1.999
2025-12-24T00:55:53.996577,1.8970,0.021903,-0.011300,0.041004,0.023775,-0.011574,0.043745,0.278097,0.011300,0.300000,0.000000,0.013883,-0.006166,0.795,-0.353,0.038655,0.002000,-0.026773,-0.001571,0.000151,-0.004746,14673919,4,1,1,0.00,15.000,132,130,0.022797,-0.005626,15.598,5.524,1,0.008914,0.000540,0,0,0.999,0,1,rigid_body,0.1439,1,0.00049,0,0.023775,-0.011574,0.043745,0.023225,0.004769,-0.018060,0.999556,2.651,0.594,-2.056
2025-12-24T00:55:54.007137,1.9076,0.023156,-0.011463,0.042806,0.025158,-0.011626,0.045569,0.276844,0.011463,0.300000,0.000000,0.013883,-0.006166,0.795,-0.353,0.038655,0.002000,-0.026773,-0.001571,0.000151,-0.004746,14673920,4,1,1,0.00,0.000,133,131,0.022797,-0.005626,21.101,0.000,1,0.008914,0.000540,0,0,0.999,0,1,rigid_body,0.1420,1,0.00047,0,0.025158,-0.011626,0.045569,0.022038,0.004679,-0.017627,0.999591,2.516,0.580,-2.008
2025-12-24T00:55:54.017698,1.9182,0.024492,-0.011561,0.044601,0.026562,-0.011683,0.047304,0.275508,0.011561,0.300000,0.000000,0.009870,-0.005355,0.566,-0.307,0.038296,0.002088,-0.030513,-0.001607,0.000148,-0.003896,14673921,4,1,1,0.00,16.000,134,131,0.022797,-0.005626,21.101,10.561,1,0.012926,-0.000270,0,0,0.999,0,1,rigid_body,0.1443,1,0.00051,0,0.026562,-0.011683,0.047304,0.022239,0.004396,-0.017582,0.999588,2.539,0.548,-2.003
2025-12-24T00:55:54.028145,1.9286,0.025870,-0.011666,0.046386,0.028007,-0.011826,0.049071,0.274130,0.011666,0.300000,0.000000,0.017537,-0.003838,1.005,-0.220,0.038104,0.002176,-0.022742,-0.001622,0.000144,-0.002360,14673922,4,1,1,0.00,16.000,135,133,0.013883,-0.006166,15.483,5.526,1,-0.003655,-0.002328,0,0,0.999,0,1,rigid_body,0.1457,1,0.00047,0,0.028007,-0.011826,0.049071,0.021740,0.003009,-0.016839,0.999617,2.485,0.387,-1.922
2025-12-24T00:55:54.038726,1.9392,0.027285,-0.011717,0.048198,0.029458,-0.011747,0.050941,0.272715,0.011717,0.300000,0.000000,0.017537,-0.003838,1.005,-0.220,0.038104,0.002176,-0.022742,-0.001622,0.000144,-0.002360,14673923,4,1,1,0.00,0.000,136,133,0.013883,-0.006166,,0.000,0,-0.003655,-0.002328,0,0,0.999,0,1,rigid_body,0.1431,1,0.00047,0,0.029458,-0.011747,0.050941,0.022075,0.003851,-0.016804,0.999608,2.522,0.484,-1.915
2025-12-24T00:55:54.049365,1.9498,0.028755,-0.011753,0.049996,0.031019,-0.011795,0.052722,0.271245,0.011753,0.300000,0.000000,0.007321,-0.003150,0.419,-0.180,0.037703,0.002257,-0.032639,-0.001634,0.000140,-0.001657,14673924,4,1,1,0.00,15.000,137,133,0.013883,-0.006166,,10.639,0,0.006562,-0.003015,0,0,0.999,0,1,rigid_body,0.1446,1,0.00046,0,0.031019,-0.011795,0.052722,0.023057,0.002646,-0.016639,0.999592,2.637,0.347,-1.899
2025-12-24T00:55:54.059942,1.9604,0.030284,-0.011767,0.051793,0.032657,-0.011762,0.054523,0.269716,0.011767,0.300000,0.000000,0.015078,-0.002268,0.864,-0.130,0.037491,0.002343,-0.024756,-0.001636,0.000137,-0.000769,14673925,4,1,1,0.00,16.000,138,136,0.017537,-0.003838,15.171,6.045,1,0.002459,-0.001571,0,0,0.999,0,1,rigid_body,0.1459,1,0.00048,0,0.032657,-0.011762,0.054523,0.023304,0.002059,-0.015998,0.999598,2.667,0.279,-1.827
