timestamp,elapsed_time,pos_x,pos_y,pos_z,raw_pos_x,raw_pos_y,raw_pos_z,error_x,error_y,target_x,target_y,roll_ref_rad,pitch_ref_rad,roll_ref_deg,pitch_ref_deg,pid_x_p,pid_x_i,pid_x_d,pid_y_p,pid_y_i,pid_y_d,frame_number,marker_count,send_success,control_active,loop_time_ms,frame_dt_ms,command_sequence,feedback_sequence,feedback_roll_rad,feedback_pitch_rad,feedback_latency_ms,feedback_age_ms,feedback_match,feedback_delta_roll,feedback_delta_pitch,is_outlier,used_prediction,confidence,consecutive_outliers,data_valid,data_source,filter_threshold,tracking_valid,rb_error,rb_marker_count,rb_pos_x,rb_pos_y,rb_pos_z,rb_qx,rb_qy,rb_qz,rb_qw,rb_roll_deg,rb_pitch_deg,rb_yaw_deg
2025-12-24T00:53:52.247385,0.5052,0.001548,-0.000231,-0.016329,0.001561,-0.000228,-0.016318,0.298452,0.000231,0.300000,0.000000,0.041544,-0.000032,2.380,-0.002,0.041485,0.000060,0.000000,-0.000032,-0.000000,-0.000000,14661744,4,1,1,0.00,0.000,1,0,0.000000,0.000000,,6.551,0,-0.041544,0.000032,0,0,0.998,0,1,rigid_body,0.1321,1,0.00076,0,0.001561,-0.000228,-0.016318,0.003505,0.014819,-0.008509,-0.999848,-0.416,-1.695,0.981
2025-12-24T00:53:52.258074,0.5159,0.001552,-0.000229,-0.016319,0.001551,-0.000222,-0.016312,0.298448,0.000229,0.300000,0.000000,0.041610,-0.000015,2.384,-0.001,0.041484,0.000155,-0.000030,-0.000032,-0.000000,0.000017,14661745,4,1,1,0.00,16.000,2,1,0.041544,-0.000032,9.570,1.119,1,-0.000065,-0.000017,0,0,0.999,0,1,rigid_body,0.1321,1,0.00075,0,0.001551,-0.000222,-0.016312,0.003632,0.014683,-0.008387,-0.999850,-0.430,-1.679,0.968
2025-12-24T00:53:52.268825,0.5267,0.001550,-0.000227,-0.016316,0.001552,-0.000229,-0.016301,0.298450,0.000227,0.300000,0.000000,0.041610,-0.000015,2.384,-0.001,0.041484,0.000155,-0.000030,-0.000032,-0.000000,0.000017,14661746,4,1,1,0.00,0.000,3,1,0.041544,-0.000032,9.570,11.869,1,-0.000065,-0.000017,0,0,0.998,0,1,rigid_body,0.1321,1,0.00075,0,0.001552,-0.000229,-0.016301,0.003617,0.014434,-0.008135,-0.999856,-0.428,-1.651,0.938
2025-12-24T00:53:52.279388,0.5372,0.001532,-0.000232,-0.016328,0.001488,-0.000240,-0.016347,0.298468,0.000232,0.300000,0.000000,0.041879,-0.000048,2.399,-0.003,0.041487,0.000251,0.000141,-0.000032,-0.000000,-0.000016,14661747,4,1,1,0.00,16.000,4,2,0.041610,-0.000015,14.264,7.050,1,-0.000269,0.000033,0,0,0.998,0,1,rigid_body,0.1321,1,0.00079,0,0.001488,-0.000240,-0.016347,0.002694,0.014391,-0.008540,-0.999856,-0.323,-1.646,0.983
2025-12-24T00:53:52.290491,0.5483,0.001529,-0.000234,-0.016335,0.001526,-0.000239,-0.016363,0.298471,0.000234,0.300000,0.000000,0.041908,-0.000055,2.401,-0.003,0.041487,0.000340,0.000080,-0.000032,-0.000000,-0.000022,14661748,4,1,1,0.00,15.000,5,3,0.041610,-0.000015,18.686,2.980,1,-0.000298,0.000040,0,0,0.998,0,1,rigid_body,0.1321,1,0.00080,0,0.001526,-0.000239,-0.016363,0.002823,0.014578,-0.008283,-0.999855,-0.337,-1.668,0.954
2025-12-24T00:53:52.301131,0.5590,0.001535,-0.000247,-0.016330,0.001556,-0.000275,-0.016312,0.298465,0.000247,0.300000,0.000000,0.041908,-0.000055,2.401,-0.003,0.041487,0.000340,0.000080,-0.000032,-0.000000,-0.000022,14661749,4,1,1,0.00,0.000,6,3,0.041610,-0.000015,18.686,13.621,1,-0.000298,0.000040,0,0,0.998,0,1,rigid_body,0.1321,1,0.00076,0,0.001556,-0.000275,-0.016312,0.003962,0.014563,-0.008144,-0.999853,-0.468,-1.665,0.940
2025-12-24T00:53:52.311787,0.5696,0.001532,-0.000252,-0.016322,0.001532,-0.000258,-0.016301,0.298468,0.000252,0.300000,0.000000,0.041931,-0.000188,2.402,-0.011,0.041487,0.000436,0.000008,-0.000035,-0.000000,-0.000153,14661750,4,1,1,0.00,16.000,7,4,0.041879,-0.000048,23.703,8.695,1,-0.000052,0.000140,0,0,0.998,0,1,rigid_body,0.1321,1,0.00076,0,0.001532,-0.000258,-0.016301,0.003543,0.014551,-0.008534,-0.999852,-0.420,-1.664,0.984
2025-12-24T00:53:52.322372,0.5802,0.001536,-0.000253,-0.016319,0.001551,-0.000249,-0.016305,0.298464,0.000253,0.300000,0.000000,0.041983,-0.000104,2.405,-0.006,0.041486,0.000525,-0.000029,-0.000035,-0.000000,-0.000069,14661751,4,1,1,0.00,15.000,8,6,0.041908,-0.000055,17.221,4.020,1,-0.000076,0.000049,0,0,0.999,0,1,rigid_body,0.1321,1,0.00075,0,0.001551,-0.000249,-0.016305,0.003876,0.014898,-0.008327,-0.999847,-0.459,-1.703,0.961
2025-12-24T00:53:52.333065,0.5909,0.001529,-0.000249,-0.016331,0.001499,-0.000235,-0.016365,0.298471,0.000249,0.300000,0.000000,0.041983,-0.000104,2.405,-0.006,0.041486,0.000525,-0.000029,-0.000035,-0.000000,-0.000069,14661752,4,1,1,0.00,0.000,9,6,0.041908,-0.000055,17.221,14.712,1,-0.000076,0.000049,0,0,0.998,0,1,rigid_body,0.1321,1,0.00081,0,0.001499,-0.000235,-0.016365,0.002538,0.014521,-0.008577,-0.999855,-0.305,-1.661,0.987
2025-12-24T00:53:52.343421,0.6013,0.001532,-0.000251,-0.016328,0.001538,-0.000254,-0.016332,0.298468,0.000251,0.300000,0.000000,0.042130,-0.000046,2.414,-0.003,0.041487,0.000621,0.000022,-0.000035,-0.000001,-0.000011,14661753,4,1,1,0.00,16.000,10,8,0.041983,-0.000104,11.202,9.846,1,-0.000146,-0.000058,0,0,0.998,0,1,rigid_body,0.1321,1,0.00076,0,0.001538,-0.000254,-0.016332,0.003478,0.014856,-0.008357,-0.999849,-0.413,-1.699,0.964
2025-12-24T00:53:52.353889,0.6117,0.001533,-0.000247,-0.016328,0.001542,-0.000243,-0.016323,0.298467,0.000247,0.300000,0.000000,0.042205,-0.000004,2.418,-0.000,0.041487,0.000716,0.000002,-0.000034,-0.000001,0.000031,14661754,4,1,1,0.00,16.000,11,9,0.041983,-0.000104,15.673,5.151,1,-0.000222,-0.000100,0,0,0.998,0,1,rigid_body,0.1321,1,0.00075,0,0.001542,-0.000243,-0.016323,0.003558,0.014886,-0.008423,-0.999847,-0.422,-1.702,0.972
2025-12-24T00:53:52.364603,0.6224,0.001536,-0.000244,-0.016327,0.001543,-0.000243,-0.016316,0.298464,0.000244,0.300000,0.000000,0.042205,-0.000004,2.418,-0.000,0.041487,0.000716,0.000002,-0.000034,-0.000001,0.000031,14661755,4,1,1,0.00,0.000,12,11,0.042205,-0.000004,10.715,0.000,1,-0.000000,0.000000,0,0,0.998,0,1,rigid_body,0.1321,1,0.00075,0,0.001543,-0.000243,-0.016316,0.003572,0.014839,-0.008410,-0.999848,-0.424,-1.697,0.970
2025-12-24T00:53:52.375100,0.6329,0.001528,-0.000235,-0.016341,0.001514,-0.000214,-0.016369,0.298472,0.000235,0.300000,0.000000,0.042334,0.000077,2.426,0.004,0.041488,0.000806,0.000041,-0.000033,-0.000001,0.000110,14661756,4,1,1,0.00,15.000,13,11,0.042205,-0.000004,10.715,10.497,1,-0.000129,-0.000081,0,0,0.998,0,1,rigid_body,0.1321,1,0.00078,0,0.001514,-0.000214,-0.016369,0.002938,0.014667,-0.008230,-0.999854,-0.351,-1.678,0.948
2025-12-24T00:53:52.385871,0.6437,0.001539,-0.000236,-0.016339,0.001562,-0.000261,-0.016301,0.298461,0.000236,0.300000,0.000000,0.042392,0.000064,2.429,0.004,0.041487,0.000901,0.000003,-0.000032,-0.000001,0.000096,14661758,4,1,1,0.00,0.000,14,12,0.042205,-0.000004,15.152,6.116,1,-0.000187,-0.000068,0,0,0.998,0,1,rigid_body,0.1320,1,0.00076,0,0.001562,-0.000261,-0.016301,0.003784,0.014704,-0.008249,-0.999851,-0.448,-1.681,0.952
2025-12-24T00:53:52.396926,0.6548,0.001545,-0.000239,-0.016331,0.001560,-0.000248,-0.016311,0.298455,0.000239,0.300000,0.000000,0.042366,-0.000079,2.427,-0.005,0.041485,0.000997,-0.000116,-0.000033,-0.000001,-0.000045,14661759,4,1,1,0.00,16.000,15,12,0.042205,-0.000004,,1.512,0,-0.000160,0.000075,0,0,0.998,0,1,rigid_body,0.1321,1,0.00076,0,0.001560,-0.000248,-0.016311,0.004127,0.014786,-0.008307,-0.999848,-0.487,-1.690,0.959
2025-12-24T00:53:52.407529,0.6654,0.001529,-0.000232,-0.016345,0.001493,-0.000217,-0.016371,0.298471,0.000232,0.300000,0.000000,0.042366,-0.000079,2.427,-0.005,0.041485,0.000997,-0.000116,-0.000033,-0.000001,-0.000045,14661760,4,1,1,0.00,0.000,16,12,0.042205,-0.000004,,12.115,0,-0.000160,0.000075,0,0,0.998,0,1,rigid_body,0.1320,1,0.00080,0,0.001493,-0.000217,-0.016371,0.002688,0.014660,-0.008563,-0.999852,-0.323,-1.677,0.986
2025-12-24T00:53:52.418189,0.6760,0.001523,-0.000233,-0.016331,0.001503,-0.000232,-0.016306,0.298477,0.000233,0.300000,0.000000,0.042712,-0.000007,2.447,-0.000,0.041488,0.001086,0.000137,-0.000032,-0.000001,0.000026,14661761,4,1,1,0.00,15.000,17,15,0.042366,-0.000079,13.625,7.638,1,-0.000346,-0.000072,0,0,0.999,0,1,rigid_body,0.1321,1,0.00074,0,0.001503,-0.000232,-0.016306,0.003253,0.014756,-0.008663,-0.999848,-0.388,-1.688,0.999
2025-12-24T00:53:52.428834,0.6867,0.001532,-0.000239,-0.016320,0.001553,-0.000246,-0.016310,0.298468,0.000239,0.300000,0.000000,0.042653,-0.000068,2.444,-0.004,0.041487,0.001182,-0.000016,-0.000033,-0.000001,-0.000033,14661762,4,1,1,0.00,16.000,18,16,0.042366,-0.000079,,3.006,0,-0.000288,-0.000011,0,0,0.998,0,1,rigid_body,0.1321,1,0.00075,0,0.001553,-0.000246,-0.016310,0.003575,0.014698,-0.008097,-0.999853,-0.423,-1.681,0.934
2025-12-24T00:53:52.439410,0.6972,0.001536,-0.000242,-0.016318,0.001552,-0.000256,-0.016308,0.298464,0.000242,0.300000,0.000000,0.042653,-0.000068,2.444,-0.004,0.041487,0.001182,-0.000016,-0.000033,-0.000001,-0.000033,14661763,4,1,1,0.00,0.000,19,16,0.042366,-0.000079,,13.581,0,-0.000288,-0.000011,0,0,0.998,0,1,rigid_body,0.1321,1,0.00076,0,0.001552,-0.000256,-0.016308,0.003520,0.014605,-0.008241,-0.999853,-0.417,-1.670,0.951
2025-12-24T00:53:52.450007,0.7078,0.001525,-0.000238,-0.016325,0.001510,-0.000229,-0.016340,0.298475,0.000238,0.300000,0.000000,0.042805,-0.000038,2.453,-0.002,0.041488,0.001271,0.000046,-0.000033,-0.000001,-0.000004,14661764,4,1,1,0.00,15.000,20,18,0.042653,-0.000068,12.615,8.558,1,-0.000152,-0.000029,0,0,0.998,0,1,rigid_body,0.1321,1,0.00078,0,0.001510,-0.000229,-0.016340,0.002617,0.014513,-0.008440,-0.999856,-0.314,-1.661,0.972
2025-12-24T00:53:52.460598,0.7184,0.001529,-0.000239,-0.016338,0.001529,-0.000234,-0.016378,0.298471,0.000239,0.300000,0.000000,0.042843,-0.000042,2.455,-0.002,0.041487,0.001367,-0.000012,-0.000033,-0.000001,-0.000007,14661765,4,1,1,0.00,16.000,21,19,0.042653,-0.000068,17.668,3.520,1,-0.000189,-0.000026,0,0,0.998,0,1,rigid_body,0.1321,1,0.00079,0,0.001529,-0.000234,-0.016378,0.002873,0.014513,-0.008365,-0.999856,-0.343,-1.660,0.964
2025-12-24T00:53:52.471244,0.7291,0.001540,-0.000248,-0.016325,0.001556,-0.000266,-0.016288,0.298460,0.000248,0.300000,0.000000,0.042843,-0.000042,2.455,-0.002,0.041487,0.001367,-0.000012,-0.000033,-0.000001,-0.000007,14661766,4,1,1,0.00,0.000,22,19,0.042653,-0.000068,17.668,14.166,1,-0.000189,-0.000026,0,0,0.998,0,1,rigid_body,0.1321,1,0.00076,0,0.001556,-0.000266,-0.016288,0.003776,0.014656,-0.008098,-0.999853,-0.446,-1.676,0.935
2025-12-24T00:53:52.481692,0.7395,0.001546,-0.000250,-0.016319,0.001564,-0.000255,-0.016300,0.298454,0.000250,0.300000,0.000000,0.042812,-0.000126,2.453,-0.007,0.041485,0.001462,-0.000135,-0.000035,-0.000001,-0.000090,14661767,4,1,1,0.00,16.000,23,20,0.042805,-0.000038,22.111,9.574,1,-0.000007,0.000088,0,0,0.998,0,1,rigid_body,0.1321,1,0.00076,0,0.001564,-0.000255,-0.016300,0.003972,0.014602,-0.008076,-0.999853,-0.469,-1.670,0.932
2025-12-24T00:53:52.492424,0.7503,0.001544,-0.000250,-0.016307,0.001542,-0.000253,-0.016278,0.298456,0.000250,0.300000,0.000000,0.043000,-0.000075,2.464,-0.004,0.041485,0.001552,-0.000038,-0.000035,-0.000001,-0.000039,14661768,4,1,1,0.00,15.000,24,22,0.042843,-0.000042,16.280,5.027,1,-0.000157,0.000034,0,0,0.998,0,1,rigid_body,0.1321,1,0.00076,0,0.001542,-0.000253,-0.016278,0.003499,0.014686,-0.008251,-0.999852,-0.415,-1.680,0.952
2025-12-24T00:53:52.502954,0.7608,0.001539,-0.000247,-0.016327,0.001518,-0.000235,-0.016381,0.298461,0.000247,0.300000,0.000000,0.043000,-0.000075,2.464,-0.004,0.041485,0.001552,-0.000038,-0.000035,-0.000001,-0.000039,14661769,4,1,1,0.00,0.000,25,24,0.043000,-0.000075,10.530,0.000,1,0.000000,-0.000000,0,0,0.998,0,1,rigid_body,0.1321,1,0.00079,0,0.001518,-0.000235,-0.016381,0.002648,0.014576,-0.008381,-0.999855,-0.318,-1.668,0.965
2025-12-24T00:53:52.514011,0.7718,0.001538,-0.000247,-0.016325,0.001533,-0.000244,-0.016335,0.298462,0.000247,0.300000,0.000000,0.043166,-0.000029,2.473,-0.002,0.041486,0.001648,0.000032,-0.000034,-0.000001,0.000007,14661770,4,1,1,0.00,16.000,26,24,0.043000,-0.000075,10.530,11.057,1,-0.000166,-0.000047,0,0,0.998,0,1,rigid_body,0.1321,1,0.00076,0,0.001533,-0.000244,-0.016335,0.003623,0.014833,-0.008532,-0.999847,-0.430,-1.696,0.984
2025-12-24T00:53:52.524693,0.7825,0.001542,-0.000247,-0.016327,0.001557,-0.000250,-0.016321,0.298458,0.000247,0.300000,0.000000,0.043166,-0.000029,2.473,-0.002,0.041486,0.001648,0.000032,-0.000034,-0.000001,0.000007,14661771,4,1,1,0.00,0.000,27,25,0.043000,-0.000075,15.149,6.591,1,-0.000166,-0.000047,0,0,0.998,0,1,rigid_body,0.1321,1,0.00076,0,0.001557,-0.000250,-0.016321,0.003588,0.014590,-0.008253,-0.999853,-0.425,-1.668,0.952
2025-12-24T00:53:52.535127,0.7930,0.001545,-0.000245,-0.016325,0.001557,-0.000244,-0.016314,0.298455,0.000245,0.300000,0.000000,0.043190,-0.000015,2.475,-0.001,0.041485,0.001743,-0.000038,-0.000034,-0.000001,0.000021,14661772,4,1,1,0.00,16.000,28,27,0.043166,-0.000029,8.653,1.781,1,-0.000024,-0.000014,0,0,0.999,0,1,rigid_body,0.1321,1,0.00075,0,0.001557,-0.000244,-0.016314,0.003594,0.014688,-0.008145,-0.999853,-0.426,-1.680,0.940
2025-12-24T00:53:52.546324,0.8042,0.001539,-0.000236,-0.016354,0.001534,-0.000233,-0.016373,0.298461,0.000236,0.300000,0.000000,0.043350,0.000041,2.484,0.002,0.041486,0.001833,0.000031,-0.000033,-0.000001,0.000075,14661774,4,1,1,0.00,0.000,29,27,0.043166,-0.000029,8.653,12.978,1,-0.000184,-0.000070,0,0,0.998,0,1,rigid_body,0.1321,1,0.00079,0,0.001534,-0.000233,-0.016373,0.002750,0.014585,-0.008346,-0.999855,-0.329,-1.669,0.961
2025-12-24T00:53:52.556939,0.8148,0.001539,-0.000242,-0.016334,0.001537,-0.000258,-0.016285,0.298461,0.000242,0.300000,0.000000,0.043425,-0.000045,2.488,-0.003,0.041486,0.001928,0.000011,-0.000034,-0.000002,-0.000010,14661775,4,1,1,0.00,16.000,30,28,0.043190,-0.000015,14.246,7.566,1,-0.000235,0.000031,0,0,0.998,0,1,rigid_body,0.1321,1,0.00077,0,0.001537,-0.000258,-0.016285,0.003471,0.014500,-0.008435,-0.999853,-0.412,-1.658,0.973
2025-12-24T00:53:52.567442,0.8253,0.001543,-0.000245,-0.016326,0.001557,-0.000255,-0.016304,0.298457,0.000245,0.300000,0.000000,0.043475,-0.000065,2.491,-0.004,0.041485,0.002018,-0.000028,-0.000034,-0.000002,-0.000030,14661776,4,1,1,0.00,15.000,31,28,0.043190,-0.000015,14.246,18.070,1,-0.000285,0.000051,0,0,0.998,0,1,rigid_body,0.1321,1,0.00076,0,0.001557,-0.000255,-0.016304,0.003946,0.014668,-0.008245,-0.999851,-0.466,-1.677,0.952
2025-12-24T00:53:52.577997,0.8358,0.001540,-0.000242,-0.016343,0.001535,-0.000235,-0.016377,0.298460,0.000242,0.300000,0.000000,0.043475,-0.000065,2.491,-0.004,0.041485,0.002018,-0.000028,-0.000034,-0.000002,-0.000030,14661777,4,1,1,0.00,0.000,32,28,0.043190,-0.000015,14.246,28.624,1,-0.000285,0.000051,0,0,0.998,0,1,rigid_body,0.1321,1,0.00080,0,0.001535,-0.000235,-0.016377,0.002902,0.014525,-0.008410,-0.999855,-0.347,-1.662,0.969
2025-12-24T00:53:52.588604,0.8464,0.001543,-0.000243,-0.016331,0.001545,-0.000238,-0.016319,0.298457,0.000243,0.300000,0.000000,0.043594,-0.000028,2.498,-0.002,0.041486,0.002113,-0.000005,-0.000034,-0.000002,0.000007,14661778,4,1,1,0.00,16.000,33,31,0.043475,-0.000065,13.561,7.600,1,-0.000119,-0.000037,0,0,0.999,0,1,rigid_body,0.1321,1,0.00075,0,0.001545,-0.000238,-0.016319,0.003701,0.014778,-0.008370,-0.999849,-0.438,-1.690,0.966
2025-12-24T00:53:52.599077,0.8569,0.001548,-0.000247,-0.016322,0.001559,-0.000253,-0.016312,0.298452,0.000247,0.300000,0.000000,0.043647,-0.000063,2.501,-0.004,0.041485,0.002209,-0.000047,-0.000034,-0.000002,-0.000027,14661779,4,1,1,0.00,16.000,34,32,0.043475,-0.000065,18.558,2.522,1,-0.000172,-0.000003,0,0,0.998,0,1,rigid_body,0.1321,1,0.00076,0,0.001559,-0.000253,-0.016312,0.003599,0.014593,-0.008245,-0.999853,-0.426,-1.669,0.951
2025-12-24T00:53:52.609724,0.8676,0.001551,-0.000247,-0.016322,0.001554,-0.000252,-0.016314,0.298449,0.000247,0.300000,0.000000,0.043647,-0.000063,2.501,-0.004,0.041485,0.002209,-0.000047,-0.000034,-0.000002,-0.000027,14661780,4,1,1,0.00,0.000,35,32,0.043475,-0.000065,18.558,13.169,1,-0.000172,-0.000003,0,0,0.998,0,1,rigid_body,0.1321,1,0.00076,0,0.001554,-0.000252,-0.016314,0.003445,0.014739,-0.008206,-0.999852,-0.409,-1.686,0.947
2025-12-24T00:53:52.619996,0.8778,0.001551,-0.000246,-0.016335,0.001552,-0.000245,-0.016356,0.298449,0.000246,0.300000,0.000000,0.043743,-0.000041,2.506,-0.002,0.041484,0.002298,-0.000039,-0.000034,-0.000002,-0.000005,14661781,4,1,1,0.00,15.000,36,34,0.043647,-0.000063,12.873,8.046,1,-0.000097,-0.000022,0,0,0.998,0,1,rigid_body,0.1321,1,0.00078,0,0.001552,-0.000245,-0.016356,0.003137,0.014626,-0.008217,-0.999854,-0.373,-1.673,0.947
2025-12-24T00:53:52.630721,0.8886,0.001542,-0.000242,-0.016349,0.001517,-0.000230,-0.016392,0.298458,0.000242,0.300000,0.000000,0.043743,-0.000041,2.506,-0.002,0.041484,0.002298,-0.000039,-0.000034,-0.000002,-0.000005,14661782,4,1,1,0.00,0.000,37,35,0.043647,-0.000063,18.105,3.020,1,-0.000097,-0.000022,0,0,0.998,0,1,rigid_body,0.1320,1,0.00080,0,0.001517,-0.000230,-0.016392,0.002947,0.014698,-0.008459,-0.999852,-0.352,-1.681,0.975
2025-12-24T00:53:52.641266,0.8991,0.001551,-0.000245,-0.016333,0.001572,-0.000251,-0.016291,0.298449,0.000245,0.300000,0.000000,0.043862,-0.000031,2.513,-0.002,0.041484,0.002394,-0.000016,-0.000034,-0.000002,0.000005,14661783,4,1,1,0.00,16.000,38,35,0.043647,-0.000063,18.105,13.565,1,-0.000216,-0.000032,0,0,0.998,0,1,rigid_body,0.1321,1,0.00076,0,0.001572,-0.000251,-0.016291,0.003931,0.014538,-0.008150,-0.999853,-0.464,-1.662,0.941
2025-12-24T00:53:52.651809,0.9096,0.001550,-0.000254,-0.016330,0.001551,-0.000276,-0.016317,0.298450,0.000254,0.300000,0.000000,0.043973,-0.000104,2.519,-0.006,0.041485,0.002489,-0.000001,-0.000035,-0.000002,-0.000066,14661784,4,1,1,0.00,16.000,39,35,0.043647,-0.000063,18.105,24.107,1,-0.000327,0.000041,0,0,0.998,0,1,rigid_body,0.1321,1,0.00076,0,0.001551,-0.000276,-0.016317,0.003785,0.014690,-0.008183,-0.999852,-0.448,-1.680,0.944
2025-12-24T00:53:52.662336,0.9202,0.001556,-0.000257,-0.016323,0.001570,-0.000264,-0.016303,0.298444,0.000257,0.300000,0.000000,0.043973,-0.000104,2.519,-0.006,0.041485,0.002489,-0.000001,-0.000035,-0.000002,-0.000066,14661785,4,1,1,0.00,0.000,40,38,0.043862,-0.000031,17.544,3.525,1,-0.000111,0.000073,0,0,0.998,0,1,rigid_body,0.1321,1,0.00076,0,0.001570,-0.000264,-0.016303,0.003936,0.014597,-0.008359,-0.999851,-0.465,-1.669,0.965
2025-12-24T00:53:52.673418,0.9312,0.001542,-0.000248,-0.016328,0.001509,-0.000223,-0.016350,0.298458,0.000248,0.300000,0.000000,0.044132,-0.000011,2.529,-0.001,0.041486,0.002579,0.000067,-0.000034,-0.000002,0.000025,14661786,4,1,1,0.00,15.000,41,39,0.043973,-0.000104,19.597,2.012,1,-0.000159,-0.000092,0,0,0.998,0,1,rigid_body,0.1321,1,0.00080,0,0.001509,-0.000223,-0.016350,0.002474,0.014626,-0.008519,-0.999854,-0.298,-1.674,0.981
2025-12-24T00:53:52.683968,0.9418,0.001540,-0.000251,-0.016316,0.001530,-0.000255,-0.016306,0.298460,0.000251,0.300000,0.000000,0.044198,-0.000056,2.532,-0.003,0.041486,0.002674,0.000038,-0.000035,-0.000002,-0.000019,14661787,4,1,1,0.00,16.000,42,39,0.043973,-0.000104,19.597,12.562,1,-0.000225,-0.000048,0,0,0.998,0,1,rigid_body,0.1321,1,0.00076,0,0.001530,-0.000255,-0.016306,0.003339,0.014551,-0.008430,-0.999853,-0.397,-1.664,0.972
2025-12-24T00:53:52.694915,0.9527,0.001530,-0.000245,-0.016316,0.001515,-0.000230,-0.016308,0.298470,0.000245,0.300000,0.000000,0.044198,-0.000056,2.532,-0.003,0.041486,0.002674,0.000038,-0.000035,-0.000002,-0.000019,14661788,4,1,1,0.00,0.000,43,41,0.044132,-0.000011,16.530,4.967,1,-0.000067,0.000045,0,0,0.998,0,1,rigid_body,0.1321,1,0.00076,0,0.001515,-0.000230,-0.016308,0.003221,0.014747,-0.008570,-0.999849,-0.384,-1.687,0.988
2025-12-24T00:53:52.705490,0.9633,0.001535,-0.000249,-0.016320,0.001552,-0.000265,-0.016329,0.298465,0.000249,0.300000,0.000000,0.044313,-0.000020,2.539,-0.001,0.041487,0.002764,0.000062,-0.000035,-0.000002,0.000017,14661789,4,1,1,0.00,15.000,44,42,0.044198,-0.000056,21.522,0.000,1,-0.000114,-0.000036,0,0,0.998,0,1,rigid_body,0.1321,1,0.00075,0,0.001552,-0.000265,-0.016329,0.003467,0.014747,-0.008265,-0.999851,-0.411,-1.687,0.953
2025-12-24T00:53:52.716658,0.9745,0.001532,-0.000240,-0.016351,0.001531,-0.000227,-0.016384,0.298468,0.000240,0.300000,0.000000,0.044411,0.000015,2.545,0.001,0.041487,0.002859,0.000064,-0.000034,-0.000002,0.000051,14661791,4,1,1,0.00,0.000,45,42,0.044198,-0.000056,21.522,11.168,1,-0.000213,-0.000072,0,0,0.998,0,1,rigid_body,0.1321,1,0.00079,0,0.001531,-0.000227,-0.016384,0.002876,0.014799,-0.008424,-0.999851,-0.344,-1.693,0.970
2025-12-24T00:53:52.727179,0.9850,0.001531,-0.000241,-0.016342,0.001530,-0.000247,-0.016309,0.298469,0.000241,0.300000,0.000000,0.044453,0.000001,2.547,0.000,0.041487,0.002955,0.000011,-0.000033,-0.000002,0.000036,14661792,4,1,1,0.00,16.000,46,43,0.044198,-0.000056,26.237,6.027,1,-0.000255,-0.000057,0,0,0.998,0,1,rigid_body,0.1321,1,0.00076,0,0.001530,-0.000247,-0.016309,0.003611,0.014784,-0.008589,-0.999847,-0.429,-1.691,0.991
2025-12-24T00:53:52.737739,0.9956,0.001539,-0.000243,-0.016336,0.001551,-0.000244,-0.016315,0.298461,0.000243,0.300000,0.000000,0.044472,-0.000039,2.548,-0.002,0.041486,0.003044,-0.000058,-0.000034,-0.000002,-0.000003,14661793,4,1,1,0.00,15.000,47,43,0.044198,-0.000056,,1.005,0,-0.000274,-0.000017,0,0,0.998,0,1,rigid_body,0.1321,1,0.00075,0,0.001551,-0.000244,-0.016315,0.003766,0.014853,-0.008281,-0.999848,-0.446,-1.698,0.956
2025-12-24T00:53:52.748079,1.0059,0.001533,-0.000236,-0.016353,0.001523,-0.000228,-0.016389,0.298467,0.000236,0.300000,0.000000,0.044472,-0.000039,2.548,-0.002,0.041486,0.003044,-0.000058,-0.000034,-0.000002,-0.000003,14661794,4,1,1,0.00,0.000,48,43,0.044198,-0.000056,,11.346,0,-0.000274,-0.000017,0,0,0.998,0,1,rigid_body,0.1321,1,0.00079,0,0.001523,-0.000228,-0.016389,0.002778,0.014738,-0.008485,-0.999852,-0.333,-1.686,0.977
2025-12-24T00:53:52.758571,1.0164,0.001540,-0.000239,-0.016345,0.001553,-0.000246,-0.016333,0.298460,0.000239,0.300000,0.000000,0.044598,-0.000012,2.555,-0.001,0.041486,0.003140,-0.000028,-0.000033,-0.000003,0.000024,14661795,4,1,1,0.00,16.000,49,47,0.044472,-0.000039,14.221,6.612,1,-0.000126,-0.000027,0,0,0.998,0,1,rigid_body,0.1321,1,0.00076,0,0.001553,-0.000246,-0.016333,0.003569,0.014937,-0.008266,-0.999848,-0.423,-1.708,0.954
2025-12-24T00:53:52.769118,1.0269,0.001543,-0.000247,-0.016334,0.001547,-0.000262,-0.016320,0.298457,0.000247,0.300000,0.000000,0.044598,-0.000012,2.555,-0.001,0.041486,0.003140,-0.000028,-0.000033,-0.000003,0.000024,14661796,4,1,1,0.00,0.000,50,48,0.044472,-0.000039,19.021,2.018,1,-0.000126,-0.000027,0,0,0.998,0,1,rigid_body,0.1321,1,0.00075,0,0.001547,-0.000262,-0.016320,0.003469,0.014654,-0.008193,-0.999853,-0.411,-1.676,0.945
2025-12-24T00:53:52.779718,1.0375,0.001539,-0.000251,-0.016329,0.001529,-0.000258,-0.016311,0.298461,0.000251,0.300000,0.000000,0.044712,-0.000114,2.562,-0.007,0.041486,0.003235,-0.000009,-0.000035,-0.000003,-0.000077,14661797,4,1,1,0.00,16.000,51,48,0.044472,-0.000039,19.021,12.618,1,-0.000239,0.000075,0,0,0.998,0,1,rigid_body,0.1321,1,0.00076,0,0.001529,-0.000258,-0.016311,0.003127,0.014831,-0.008416,-0.999850,-0.373,-1.696,0.970
2025-12-24T00:53:52.790281,1.0481,0.001535,-0.000245,-0.016339,0.001529,-0.000232,-0.016358,0.298465,0.000245,0.300000,0.000000,0.044844,-0.000024,2.569,-0.001,0.041487,0.003325,0.000032,-0.000034,-0.000003,0.000013,14661798,4,1,1,0.00,15.000,52,50,0.044598,-0.000012,14.113,7.050,1,-0.000246,0.000012,0,0,0.998,0,1,rigid_body,0.1321,1,0.00078,0,0.001529,-0.000232,-0.016358,0.002808,0.014841,-0.008263,-0.999852,-0.336,-1.698,0.952
2025-12-24T00:53:52.800753,1.0586,0.001531,-0.000239,-0.016348,0.001519,-0.000221,-0.016382,0.298469,0.000239,0.300000,0.000000,0.044844,-0.000024,2.569,-0.001,0.041487,0.003325,0.000032,-0.000034,-0.000003,0.000013,14661799,4,1,1,0.00,0.000,53,51,0.044712,-0.000114,19.022,2.013,1,-0.000132,-0.000090,0,0,0.998,0,1,rigid_body,0.1321,1,0.00079,0,0.001519,-0.000221,-0.016382,0.002758,0.014952,-0.008396,-0.999849,-0.330,-1.711,0.967
2025-12-24T00:53:52.811369,1.0692,0.001543,-0.000249,-0.016339,0.001577,-0.000271,-0.016315,0.298457,0.000249,0.300000,0.000000,0.044856,-0.000057,2.570,-0.003,0.041486,0.003420,-0.000049,-0.000035,-0.000003,-0.000020,14661800,4,1,1,0.00,16.000,54,51,0.044712,-0.000114,19.022,12.629,1,-0.000145,-0.000057,0,0,0.998,0,1,rigid_body,0.1321,1,0.00076,0,0.001577,-0.000271,-0.016315,0.003778,0.014891,-0.008276,-0.999848,-0.447,-1.703,0.955
2025-12-24T00:53:52.821929,1.0798,0.001535,-0.000251,-0.016329,0.001519,-0.000260,-0.016301,0.298465,0.000251,0.300000,0.000000,0.045041,-0.000065,2.581,-0.004,0.041487,0.003510,0.000045,-0.000035,-0.000003,-0.000027,14661801,4,1,1,0.00,15.000,55,52,0.044844,-0.000024,23.600,8.048,1,-0.000197,0.000041,0,0,0.998,0,1,rigid_body,0.1321,1,0.00077,0,0.001519,-0.000260,-0.016301,0.003409,0.015069,-0.008463,-0.999845,-0.405,-1.723,0.976
2025-12-24T00:53:52.832521,1.0904,0.001541,-0.000254,-0.016324,0.001553,-0.000263,-0.016308,0.298459,0.000254,0.300000,0.000000,0.045041,-0.000065,2.581,-0.004,0.041487,0.003510,0.000045,-0.000035,-0.000003,-0.000027,14661802,4,1,1,0.00,0.000,56,54,0.044856,-0.000057,18.635,2.517,1,-0.000185,0.000008,0,0,0.998,0,1,rigid_body,0.1321,1,0.00076,0,0.001553,-0.000263,-0.016308,0.003675,0.014891,-0.008198,-0.999849,-0.435,-1.703,0.946
2025-12-24T00:53:52.843108,1.1009,0.001527,-0.000252,-0.016329,0.001491,-0.000240,-0.016352,0.298473,0.000252,0.300000,0.000000,0.045175,-0.000054,2.588,-0.003,0.041488,0.003605,0.000082,-0.000035,-0.000003,-0.000016,14661803,4,1,1,0.00,16.000,57,54,0.044856,-0.000057,18.635,13.104,1,-0.000319,-0.000003,0,0,0.998,0,1,rigid_body,0.1321,1,0.00080,0,0.001491,-0.000240,-0.016352,0.002535,0.014756,-0.008512,-0.999852,-0.305,-1.688,0.980
2025-12-24T00:53:52.853678,1.1115,0.001537,-0.000256,-0.016319,0.001558,-0.000256,-0.016310,0.298463,0.000256,0.300000,0.000000,0.045140,-0.000075,2.586,-0.004,0.041486,0.003701,-0.000047,-0.000036,-0.000003,-0.000037,14661804,4,1,1,0.00,16.000,58,56,0.045041,-0.000065,13.624,7.533,1,-0.000099,0.000010,0,0,0.999,0,1,rigid_body,0.1321,1,0.00075,0,0.001558,-0.000256,-0.016310,0.003416,0.014987,-0.008070,-0.999849,-0.405,-1.714,0.931
2025-12-24T00:53:52.864437,1.1223,0.001536,-0.000251,-0.016311,0.001544,-0.000245,-0.016292,0.298464,0.000251,0.300000,0.000000,0.045140,-0.000075,2.586,-0.004,0.041486,0.003701,-0.000047,-0.000036,-0.000003,-0.000037,14661805,4,1,1,0.00,0.000,59,57,0.045175,-0.000054,18.614,2.714,1,0.000035,0.000021,0,0,0.998,0,1,rigid_body,0.1321,1,0.00076,0,0.001544,-0.000245,-0.016292,0.003326,0.014991,-0.007978,-0.999850,-0.395,-1.715,0.920
2025-12-24T00:53:52.875022,1.1329,0.001534,-0.000244,-0.016310,0.001526,-0.000230,-0.016306,0.298466,0.000244,0.300000,0.000000,0.045283,0.000045,2.595,0.003,0.041487,0.003790,0.000006,-0.000034,-0.000003,0.000082,14661806,4,1,1,0.00,15.000,60,57,0.045175,-0.000054,18.614,13.299,1,-0.000108,-0.000100,0,0,0.999,0,1,rigid_body,0.1321,1,0.00075,0,0.001526,-0.000230,-0.016306,0.003298,0.015312,-0.008012,-0.999845,-0.392,-1.752,0.924
2025-12-24T00:53:52.876029,1.1339,0.001515,-0.000230,-0.016333,0.001478,-0.000204,-0.016382,0.298485,0.000230,0.300000,0.000000,0.045525,0.000105,2.608,0.006,0.041489,0.003886,0.000150,-0.000032,-0.000003,0.000140,14661807,4,1,1,0.00,16.000,61,57,0.045175,-0.000054,18.614,14.306,1,-0.000350,-0.000159,0,0,0.998,0,1,rigid_body,0.1321,1,0.00079,0,0.001478,-0.000204,-0.016382,0.002893,0.015311,-0.008472,-0.999843,-0.346,-1.752,0.976
2025-12-24T00:53:52.886569,1.1444,0.001499,-0.000222,-0.016343,0.001456,-0.000208,-0.016370,0.298501,0.000222,0.300000,0.000000,0.045525,0.000105,2.608,0.006,0.041489,0.003886,0.000150,-0.000032,-0.000003,0.000140,14661808,4,1,1,0.00,0.000,62,59,0.045140,-0.000075,,1.507,0,-0.000386,-0.000180,0,0,0.998,0,1,rigid_body,0.1321,1,0.00079,0,0.001456,-0.000208,-0.016370,0.003119,0.015461,-0.008701,-0.999838,-0.373,-1.769,1.003
2025-12-24T00:53:52.896959,1.1548,0.001470,-0.000213,-0.016325,0.001421,-0.000204,-0.016275,0.298530,0.000213,0.300000,0.000000,0.045885,0.000148,2.629,0.008,0.041496,0.003982,0.000408,-0.000030,-0.000003,0.000181,14661809,4,1,1,0.00,16.000,63,59,0.045140,-0.000075,,11.897,0,-0.000745,-0.000223,0,0,0.998,0,1,rigid_body,0.1321,1,0.00077,0,0.001421,-0.000204,-0.016275,0.003929,0.015750,-0.008760,-0.999830,-0.466,-1.801,1.011
2025-12-24T00:53:52.907370,1.1652,0.001435,-0.000210,-0.016314,0.001380,-0.000213,-0.016281,0.298565,0.000210,0.300000,0.000000,0.045885,0.000148,2.629,0.008,0.041496,0.003982,0.000408,-0.000030,-0.000003,0.000181,14661810,4,1,1,0.00,0.000,64,59,0.045140,-0.000075,,22.308,0,-0.000745,-0.000223,0,0,0.998,0,1,rigid_body,0.1321,1,0.00077,0,0.001380,-0.000213,-0.016281,0.004029,0.016040,-0.008879,-0.999824,-0.478,-1.834,1.025
2025-12-24T00:53:52.917809,1.1756,0.001399,-0.000209,-0.016336,0.001344,-0.000211,-0.016384,0.298601,0.000209,0.300000,0.000000,0.046316,0.000077,2.654,0.004,0.041506,0.004071,0.000740,-0.000029,-0.000003,0.000110,14661811,4,1,1,0.00,15.000,65,62,0.045525,0.000105,21.299,9.941,1,-0.000791,0.000028,0,0,0.998,0,1,rigid_body,0.1321,1,0.00079,0,0.001344,-0.000211,-0.016384,0.003106,0.016329,-0.008818,-0.999823,-0.373,-1.868,1.017
2025-12-24T00:53:52.928426,1.1863,0.001365,-0.000212,-0.016332,0.001312,-0.000219,-0.016334,0.298635,0.000212,0.300000,0.000000,0.046233,-0.000016,2.649,-0.001,0.041510,0.004167,0.000556,-0.000030,-0.000003,0.000017,14661812,4,1,1,0.00,16.000,66,64,0.045885,0.000148,16.028,5.028,1,-0.000348,0.000164,0,0,0.998,0,1,rigid_body,0.1322,1,0.00076,0,0.001312,-0.000219,-0.016334,0.003918,0.016493,-0.009349,-0.999813,-0.467,-1.886,1.079
2025-12-24T00:53:52.938984,1.1968,0.001341,-0.000213,-0.016325,0.001312,-0.000213,-0.016322,0.298659,0.000213,0.300000,0.000000,0.046233,-0.000016,2.649,-0.001,0.041510,0.004167,0.000556,-0.000030,-0.000003,0.000017,14661813,4,1,1,0.00,0.000,67,66,0.046233,-0.000016,10.558,0.000,1,0.000000,-0.000000,0,0,0.998,0,1,rigid_body,0.1321,1,0.00078,0,0.001312,-0.000213,-0.016322,0.003752,0.016658,-0.008634,-0.999817,-0.447,-1.905,0.997
2025-12-24T00:53:52.949574,1.2074,0.001320,-0.000214,-0.016332,0.001296,-0.000212,-0.016334,0.298680,0.000214,0.300000,0.000000,0.046366,-0.000036,2.657,-0.002,0.041517,0.004256,0.000593,-0.000030,-0.000003,-0.000003,14661814,4,1,1,0.00,15.000,68,66,0.046233,-0.000016,10.558,10.590,1,-0.000133,0.000019,0,0,0.998,0,1,rigid_body,0.1322,1,0.00076,0,0.001296,-0.000212,-0.016334,0.003812,0.016996,-0.009015,-0.999808,-0.455,-1.944,1.041
2025-12-24T00:53:52.960159,1.2180,0.001313,-0.000224,-0.016352,0.001315,-0.000246,-0.016382,0.298687,0.000224,0.300000,0.000000,0.046159,-0.000113,2.645,-0.006,0.041518,0.004352,0.000290,-0.000031,-0.000004,-0.000079,14661815,4,1,1,0.00,16.000,69,67,0.046233,-0.000016,15.148,6.027,1,0.000074,0.000097,0,0,0.998,0,1,rigid_body,0.1322,1,0.00079,0,0.001315,-0.000246,-0.016382,0.003057,0.017322,-0.008251,-0.999811,-0.367,-1.982,0.952
2025-12-24T00:53:52.970714,1.2285,0.001310,-0.000233,-0.016351,0.001313,-0.000249,-0.016358,0.298690,0.000233,0.300000,0.000000,0.046159,-0.000113,2.645,-0.006,0.041518,0.004352,0.000290,-0.000031,-0.000004,-0.000079,14661816,4,1,1,0.00,0.000,70,68,0.046366,-0.000036,20.135,1.004,1,0.000206,0.000077,0,0,0.998,0,1,rigid_body,0.1321,1,0.00080,0,0.001313,-0.000249,-0.016358,0.002448,0.018041,-0.007907,-0.999803,-0.297,-2.065,0.912
2025-12-24T00:53:52.981232,1.2391,0.001343,-0.000252,-0.016301,0.001418,-0.000291,-0.016185,0.298657,0.000252,0.300000,0.000000,0.045842,-0.000285,2.627,-0.016,0.041513,0.004447,-0.000118,-0.000035,-0.000004,-0.000247,14661817,4,1,1,0.00,16.000,71,68,0.046366,-0.000036,20.135,11.523,1,0.000523,0.000249,0,0,0.998,0,1,rigid_body,0.1321,1,0.00085,0,0.001418,-0.000291,-0.016185,0.004433,0.018668,-0.008776,-0.999777,-0.527,-2.135,1.016
2025-12-24T00:53:52.991764,1.2496,0.001371,-0.000286,-0.016264,0.001424,-0.000351,-0.016187,0.298629,0.000286,0.300000,0.000000,0.045773,-0.000421,2.623,-0.024,0.041509,0.004537,-0.000274,-0.000040,-0.000004,-0.000377,14661818,4,1,1,0.00,15.000,72,68,0.046366,-0.000036,20.135,22.054,1,0.000593,0.000385,0,0,0.998,0,1,rigid_body,0.1322,1,0.00084,0,0.001424,-0.000351,-0.016187,0.004612,0.019332,-0.008716,-0.999765,-0.548,-2.211,1.010
2025-12-24T00:53:53.002307,1.2601,0.001383,-0.000329,-0.016237,0.001388,-0.000404,-0.016198,0.298617,0.000329,0.300000,0.000000,0.045773,-0.000421,2.623,-0.024,0.041509,0.004537,-0.000274,-0.000040,-0.000004,-0.000377,14661819,4,1,1,0.00,0.000,73,71,0.045842,-0.000285,19.570,1.505,1,0.000070,0.000136,0,0,0.998,0,1,rigid_body,0.1322,1,0.00082,0,0.001388,-0.000404,-0.016198,0.005044,0.020046,-0.008713,-0.999748,-0.598,-2.292,1.011
2025-12-24T00:53:53.012841,1.2707,0.001383,-0.000362,-0.016239,0.001364,-0.000413,-0.016283,0.298617,0.000362,0.300000,0.000000,0.045939,-0.000789,2.632,-0.045,0.041508,0.004633,-0.000202,-0.000050,-0.000004,-0.000735,14661820,4,1,1,0.00,16.000,74,71,0.045842,-0.000285,19.570,12.039,1,-0.000096,0.000504,0,0,0.998,0,1,rigid_body,0.1322,1,0.00087,0,0.001364,-0.000413,-0.016283,0.004102,0.020694,-0.008870,-0.999738,-0.491,-2.367,1.027
2025-12-24T00:53:53.023634,1.2815,0.001381,-0.000407,-0.016230,0.001355,-0.000475,-0.016245,0.298619,0.000407,0.300000,0.000000,0.045939,-0.000789,2.632,-0.045,0.041508,0.004633,-0.000202,-0.000050,-0.000004,-0.000735,14661821,4,1,1,0.00,0.000,75,73,0.045773,-0.000421,13.791,7.535,1,-0.000166,0.000369,0,0,0.998,0,1,rigid_body,0.1322,1,0.00087,0,0.001355,-0.000475,-0.016245,0.004704,0.021247,-0.008719,-0.999725,-0.561,-2.430,1.011
2025-12-24T00:53:53.034466,1.2923,0.001369,-0.000445,-0.016235,0.001354,-0.000494,-0.016235,0.298631,0.000445,0.300000,0.000000,0.046266,-0.000990,2.651,-0.057,0.041510,0.004728,0.000028,-0.000062,-0.000004,-0.000924,14661822,4,1,1,0.00,16.000,76,74,0.045939,-0.000789,18.604,3.021,1,-0.000327,0.000200,0,0,0.998,0,1,rigid_body,0.1322,1,0.00083,0,0.001354,-0.000494,-0.016235,0.005126,0.021244,-0.009511,-0.999716,-0.611,-2.429,1.103
2025-12-24T00:53:53.045014,1.3028,0.001351,-0.000493,-0.016246,0.001327,-0.000574,-0.016256,0.298649,0.000493,0.300000,0.000000,0.046488,-0.000836,2.664,-0.048,0.041512,0.004818,0.000158,-0.000069,-0.000004,-0.000763,14661823,4,1,1,0.00,15.000,77,74,0.045939,-0.000789,18.604,13.569,1,-0.000549,0.000047,0,0,0.998,0,1,rigid_body,0.1323,1,0.00085,0,0.001327,-0.000574,-0.016256,0.005585,0.021519,-0.009775,-0.999705,-0.665,-2.460,1.135
2025-12-24T00:53:53.055569,1.3134,0.001358,-0.000556,-0.016269,0.001358,-0.000612,-0.016278,0.298642,0.000556,0.300000,0.000000,0.046433,-0.000871,2.660,-0.050,0.041511,0.004913,0.000009,-0.000077,-0.000004,-0.000789,14661825,4,1,1,0.00,16.000,78,76,0.046266,-0.000990,12.558,8.545,1,-0.000168,-0.000119,0,0,0.998,0,1,rigid_body,0.1322,1,0.00090,0,0.001358,-0.000612,-0.016278,0.003597,0.021015,-0.008796,-0.999734,-0.434,-2.405,1.017
2025-12-24T00:53:53.066184,1.3240,0.001383,-0.000605,-0.016238,0.001439,-0.000689,-0.016163,0.298617,0.000605,0.300000,0.000000,0.046306,-0.000799,2.653,-0.046,0.041508,0.005003,-0.000204,-0.000084,-0.000004,-0.000711,14661826,4,1,1,0.00,15.000,79,77,0.046488,-0.000836,18.095,3.075,1,0.000182,-0.000037,0,0,0.998,0,1,rigid_body,0.1322,1,0.00091,0,0.001439,-0.000689,-0.016163,0.004145,0.020521,-0.007858,-0.999750,-0.494,-2.348,0.911
2025-12-24T00:53:53.077086,1.3349,0.001417,-0.000654,-0.016225,0.001484,-0.000734,-0.016194,0.298583,0.000654,0.300000,0.000000,0.046306,-0.000799,2.653,-0.046,0.041508,0.005003,-0.000204,-0.000084,-0.000004,-0.000711,14661827,4,1,1,0.00,0.000,80,77,0.046488,-0.000836,18.095,13.976,1,0.000182,-0.000037,0,0,0.998,0,1,rigid_body,0.1322,1,0.00090,0,0.001484,-0.000734,-0.016194,0.004264,0.020887,-0.007606,-0.999744,-0.507,-2.390,0.882
2025-12-24T00:53:53.087656,1.3455,0.001436,-0.000684,-0.016241,0.001452,-0.000727,-0.016286,0.298564,0.000684,0.300000,0.000000,0.046114,-0.000992,2.642,-0.057,0.041500,0.005098,-0.000485,-0.000095,-0.000005,-0.000893,14661828,4,1,1,0.00,16.000,81,79,0.046306,-0.000799,12.411,9.061,1,0.000192,0.000193,0,0,0.998,0,1,rigid_body,0.1323,1,0.00093,0,0.001452,-0.000727,-0.016286,0.003270,0.020962,-0.007844,-0.999744,-0.394,-2.399,0.907
2025-12-24T00:53:53.098108,1.3559,0.001445,-0.000742,-0.016231,0.001451,-0.000833,-0.016226,0.298555,0.000742,0.300000,0.000000,0.046430,-0.000911,2.660,-0.052,0.041499,0.005194,-0.000263,-0.000103,-0.000005,-0.000802,14661829,4,1,1,0.00,16.000,82,80,0.046306,-0.000799,16.984,4.039,1,-0.000123,0.000112,0,0,0.998,0,1,rigid_body,0.1323,1,0.00090,0,0.001451,-0.000833,-0.016226,0.003652,0.021089,-0.008064,-0.999738,-0.438,-2.413,0.934
2025-12-24T00:53:53.108685,1.3665,0.001472,-0.000809,-0.016221,0.001505,-0.000920,-0.016211,0.298528,0.000809,0.300000,0.000000,0.046430,-0.000911,2.660,-0.052,0.041499,0.005194,-0.000263,-0.000103,-0.000005,-0.000802,14661830,4,1,1,0.00,0.000,83,81,0.046114,-0.000992,18.524,2.505,1,-0.000316,-0.000082,0,0,0.998,0,1,rigid_body,0.1322,1,0.00089,0,0.001505,-0.000920,-0.016211,0.003945,0.020853,-0.007856,-0.999744,-0.471,-2.386,0.910
2025-12-24T00:53:53.119207,1.3770,0.001481,-0.000874,-0.016226,0.001494,-0.000983,-0.016223,0.298519,0.000874,0.300000,0.000000,0.046378,-0.001518,2.657,-0.087,0.041494,0.005283,-0.000400,-0.000121,-0.000005,-0.001392,14661831,4,1,1,0.00,15.000,84,81,0.046114,-0.000992,18.524,13.028,1,-0.000263,0.000526,0,0,0.998,0,1,rigid_body,0.1323,1,0.00089,0,0.001494,-0.000983,-0.016223,0.003866,0.020990,-0.008091,-0.999740,-0.463,-2.402,0.937
2025-12-24T00:53:53.129820,1.3876,0.001485,-0.000928,-0.016237,0.001495,-0.001008,-0.016253,0.298515,0.000928,0.300000,0.000000,0.046378,-0.001518,2.657,-0.087,0.041494,0.005283,-0.000400,-0.000121,-0.000005,-0.001392,14661832,4,1,1,0.00,0.000,85,83,0.046430,-0.000911,17.095,4.040,1,0.000052,0.000608,0,0,0.998,0,1,rigid_body,0.1322,1,0.00092,0,0.001495,-0.001008,-0.016253,0.002814,0.020613,-0.007587,-0.999755,-0.341,-2.360,0.877
2025-12-24T00:53:53.140356,1.3982,0.001497,-0.000979,-0.016243,0.001514,-0.001037,-0.016268,0.298503,0.000979,0.300000,0.000000,0.046590,-0.001508,2.669,-0.086,0.041492,0.005379,-0.000281,-0.000136,-0.000005,-0.001366,14661833,4,1,1,0.00,16.000,86,83,0.046430,-0.000911,17.095,14.576,1,-0.000161,0.000597,0,0,0.998,0,1,rigid_body,0.1323,1,0.00095,0,0.001514,-0.001037,-0.016268,0.002337,0.020823,-0.007375,-0.999753,-0.286,-2.384,0.851
2025-12-24T00:53:53.150744,1.4086,0.001517,-0.001040,-0.016227,0.001549,-0.001133,-0.016188,0.298483,0.001040,0.300000,0.000000,0.046697,-0.001160,2.676,-0.066,0.041489,0.005475,-0.000267,-0.000145,-0.000006,-0.001010,14661834,4,1,1,0.00,16.000,87,84,0.046378,-0.001518,21.656,9.882,1,-0.000319,-0.000358,0,0,0.998,0,1,rigid_body,0.1323,1,0.00089,0,0.001549,-0.001133,-0.016188,0.003766,0.020545,-0.007300,-0.999755,-0.449,-2.351,0.846
2025-12-24T00:53:53.161354,1.4192,0.001530,-0.001095,-0.016213,0.001555,-0.001183,-0.016176,0.298470,0.001095,0.300000,0.000000,0.046697,-0.001160,2.676,-0.066,0.041489,0.005475,-0.000267,-0.000145,-0.000006,-0.001010,14661835,4,1,1,0.00,0.000,88,85,0.046378,-0.001518,,5.021,0,-0.000319,-0.000358,0,0,0.998,0,1,rigid_body,0.1323,1,0.00090,0,0.001555,-0.001183,-0.016176,0.003776,0.020543,-0.007437,-0.999754,-0.451,-2.351,0.862
2025-12-24T00:53:53.171960,1.4298,0.001540,-0.001140,-0.016197,0.001552,-0.001207,-0.016164,0.298460,0.001140,0.300000,0.000000,0.046759,-0.001384,2.679,-0.079,0.041486,0.005564,-0.000291,-0.000158,-0.000006,-0.001219,14661836,4,1,1,0.00,15.000,89,88,0.046697,-0.001160,10.606,0.000,1,-0.000062,0.000224,0,0,0.998,0,1,rigid_body,0.1323,1,0.00090,0,0.001552,-0.001207,-0.016164,0.003550,0.020360,-0.007303,-0.999760,-0.424,-2.330,0.846
2025-12-24T00:53:53.182512,1.4403,0.001532,-0.001180,-0.016211,0.001503,-0.001231,-0.016258,0.298468,0.001180,0.300000,0.000000,0.047087,-0.000963,2.698,-0.055,0.041487,0.005660,-0.000060,-0.000164,-0.000007,-0.000793,14661837,4,1,1,0.00,16.000,90,88,0.046697,-0.001160,10.606,10.553,1,-0.000390,-0.000197,0,0,0.998,0,1,rigid_body,0.1323,1,0.00094,0,0.001503,-0.001231,-0.016258,0.002412,0.020692,-0.007489,-0.999755,-0.294,-2.369,0.864
2025-12-24T00:53:53.193165,1.4510,0.001547,-0.001245,-0.016192,0.001575,-0.001349,-0.016168,0.298453,0.001245,0.300000,0.000000,0.047087,-0.000963,2.698,-0.055,0.041487,0.005660,-0.000060,-0.000164,-0.000007,-0.000793,14661838,4,1,1,0.00,0.000,91,89,0.046759,-0.001384,16.066,5.140,1,-0.000328,-0.000421,0,0,0.998,0,1,rigid_body,0.1323,1,0.00086,0,0.001575,-0.001349,-0.016168,0.003988,0.021248,-0.007791,-0.999736,-0.476,-2.431,0.903
2025-12-24T00:53:53.204195,1.4620,0.001536,-0.001302,-0.016183,0.001512,-0.001397,-0.016160,0.298464,0.001302,0.300000,0.000000,0.047181,-0.001503,2.703,-0.086,0.041486,0.005749,-0.000054,-0.000181,-0.000007,-0.001315,14661839,4,1,1,0.00,15.000,92,91,0.047087,-0.000963,10.523,0.506,1,-0.000095,0.000540,0,0,0.998,0,1,rigid_body,0.1323,1,0.00085,0,0.001512,-0.001397,-0.016160,0.004377,0.021153,-0.008297,-0.999732,-0.522,-2.420,0.962
2025-12-24T00:53:53.214970,1.4728,0.001480,-0.001375,-0.016227,0.001359,-0.001502,-0.016324,0.298520,0.001375,0.300000,0.000000,0.047751,-0.001279,2.736,-0.073,0.041494,0.005845,0.000412,-0.000191,-0.000007,-0.001081,14661840,4,1,1,0.00,16.000,93,91,0.047087,-0.000963,10.523,11.282,1,-0.000664,0.000316,0,0,0.998,0,1,rigid_body,0.1323,1,0.00077,0,0.001359,-0.001502,-0.016324,0.001937,0.021600,-0.007330,-0.999738,-0.240,-2.474,0.845
2025-12-24T00:53:53.225521,1.4834,0.001372,-0.001519,-0.016301,0.001279,-0.001618,-0.016357,0.298628,0.001519,0.300000,0.000000,0.048435,-0.001760,2.775,-0.101,0.041509,0.005940,0.000985,-0.000211,-0.000008,-0.001541,14661842,4,1,1,0.00,16.000,94,91,0.047087,-0.000963,,6.527,0,-0.001348,0.000797,0,0,0.998,0,1,rigid_body,0.1324,1,0.00077,0,0.001279,-0.001618,-0.016357,0.000964,0.021719,-0.007402,-0.999736,-0.129,-2.488,0.851
2025-12-24T00:53:53.236212,1.4940,0.001333,-0.001599,-0.016311,0.001303,-0.001726,-0.016294,0.298667,0.001599,0.300000,0.000000,0.048260,-0.001493,2.765,-0.086,0.041515,0.006030,0.000716,-0.000222,-0.000008,-0.001263,14661843,4,1,1,0.00,15.000,95,93,0.047751,-0.001279,19.229,2.013,1,-0.000510,0.000214,0,0,0.998,0,1,rigid_body,0.1325,1,0.00078,0,0.001303,-0.001726,-0.016294,0.002808,0.021642,-0.007788,-0.999732,-0.341,-2.478,0.900
2025-12-24T00:53:53.246777,1.5046,0.001301,-0.001686,-0.016318,0.001281,-0.001822,-0.016292,0.298699,0.001686,0.300000,0.000000,0.048260,-0.001493,2.765,-0.086,0.041515,0.006030,0.000716,-0.000222,-0.000008,-0.001263,14661844,4,1,1,0.00,0.000,96,93,0.047751,-0.001279,19.229,12.578,1,-0.000510,0.000214,0,0,0.998,0,1,rigid_body,0.1324,1,0.00080,0,0.001281,-0.001822,-0.016292,0.003466,0.021468,-0.008446,-0.999728,-0.418,-2.457,0.977
2025-12-24T00:53:53.257310,1.5151,0.001285,-0.001775,-0.016317,0.001266,-0.001920,-0.016314,0.298715,0.001775,0.300000,0.000000,0.048300,-0.002108,2.767,-0.121,0.041521,0.006125,0.000653,-0.000247,-0.000009,-0.001852,14661845,4,1,1,0.00,16.000,97,95,0.048260,-0.001493,13.520,7.579,1,-0.000040,0.000614,0,0,0.998,0,1,rigid_body,0.1325,1,0.00076,0,0.001266,-0.001920,-0.016314,0.002925,0.021377,-0.008800,-0.999729,-0.357,-2.447,1.016
2025-12-24T00:53:53.267893,1.5257,0.001276,-0.001865,-0.016296,0.001267,-0.002006,-0.016263,0.298724,0.001865,0.300000,0.000000,0.048300,-0.002108,2.767,-0.121,0.041521,0.006125,0.000653,-0.000247,-0.000009,-0.001852,14661846,4,1,1,0.00,0.000,98,96,0.048260,-0.001493,18.101,3.015,1,-0.000040,0.000614,0,0,0.998,0,1,rigid_body,0.1324,1,0.00076,0,0.001267,-0.002006,-0.016263,0.003460,0.021362,-0.008568,-0.999729,-0.418,-2.445,0.991
2025-12-24T00:53:53.278495,1.5363,0.001276,-0.001954,-0.016266,0.001278,-0.002080,-0.016216,0.298724,0.001954,0.300000,0.000000,0.048070,-0.002392,2.754,-0.137,0.041523,0.006221,0.000327,-0.000272,-0.000010,-0.002111,14661847,4,1,1,0.00,16.000,99,96,0.048260,-0.001493,18.101,13.617,1,0.000190,0.000899,0,0,0.999,0,1,rigid_body,0.1325,1,0.00074,0,0.001278,-0.002080,-0.016216,0.002963,0.021136,-0.007727,-0.999742,-0.358,-2.419,0.893
2025-12-24T00:53:53.289096,1.5469,0.001273,-0.002072,-0.016241,0.001273,-0.002270,-0.016193,0.298727,0.002072,0.300000,0.000000,0.047993,-0.002108,2.750,-0.121,0.041523,0.006311,0.000159,-0.000288,-0.000010,-0.001810,14661848,4,1,1,0.00,15.000,100,98,0.048300,-0.002108,12.117,9.086,1,0.000307,0.000000,0,0,0.999,0,1,rigid_body,0.1325,1,0.00073,0,0.001273,-0.002270,-0.016193,0.003265,0.020617,-0.008061,-0.999750,-0.393,-2.360,0.932
2025-12-24T00:53:53.300025,1.5579,0.001273,-0.002185,-0.016231,0.001276,-0.002363,-0.016223,0.298727,0.002185,0.300000,0.000000,0.047993,-0.002108,2.750,-0.121,0.041523,0.006311,0.000159,-0.000288,-0.000010,-0.001810,14661849,4,1,1,0.00,0.000,101,99,0.048070,-0.002392,17.513,4.017,1,0.000078,-0.000284,0,0,0.998,0,1,rigid_body,0.1324,1,0.00077,0,0.001276,-0.002363,-0.016223,0.002379,0.020023,-0.007846,-0.999766,-0.291,-2.292,0.905
2025-12-24T00:53:53.310779,1.5686,0.001257,-0.002292,-0.016236,0.001219,-0.002456,-0.016270,0.298743,0.002292,0.300000,0.000000,0.048118,-0.002736,2.757,-0.157,0.041525,0.006406,0.000186,-0.000319,-0.000011,-0.002407,14661850,4,1,1,0.00,16.000,102,99,0.048070,-0.002392,17.513,14.771,1,-0.000047,0.000344,0,0,0.998,0,1,rigid_body,0.1326,1,0.00079,0,0.001219,-0.002456,-0.016270,0.002602,0.019866,-0.008225,-0.999766,-0.317,-2.274,0.949
2025-12-24T00:53:53.321327,1.5792,0.001261,-0.002414,-0.016212,0.001272,-0.002605,-0.016166,0.298739,0.002414,0.300000,0.000000,0.048063,-0.002308,2.754,-0.132,0.041525,0.006496,0.000042,-0.000336,-0.000012,-0.001961,14661851,4,1,1,0.00,15.000,103,101,0.047993,-0.002108,11.261,10.042,1,-0.000070,0.000200,0,0,0.998,0,1,rigid_body,0.1326,1,0.00078,0,0.001272,-0.002605,-0.016166,0.003376,0.019479,-0.007441,-0.999777,-0.404,-2.229,0.861
2025-12-24T00:53:53.331885,1.5897,0.001268,-0.002543,-0.016189,0.001290,-0.002734,-0.016139,0.298732,0.002543,0.300000,0.000000,0.048063,-0.002308,2.754,-0.132,0.041525,0.006496,0.000042,-0.000336,-0.000012,-0.001961,14661852,4,1,1,0.00,0.000,104,101,0.047993,-0.002108,,5.029,0,-0.000070,0.000200,0,0,0.998,0,1,rigid_body,0.1325,1,0.00080,0,0.001290,-0.002734,-0.016139,0.003327,0.019305,-0.006956,-0.999784,-0.397,-2.210,0.805
2025-12-24T00:53:53.342420,1.6002,0.001275,-0.002666,-0.016164,0.001290,-0.002860,-0.016111,0.298725,0.002666,0.300000,0.000000,0.048024,-0.003089,2.752,-0.177,0.041523,0.006591,-0.000090,-0.000371,-0.000012,-0.002706,14661853,4,1,1,0.00,16.000,105,102,0.048118,-0.002736,,0.000,0,0.000094,0.000353,0,0,0.998,0,1,rigid_body,0.1326,1,0.00082,0,0.001290,-0.002860,-0.016111,0.003695,0.019528,-0.006937,-0.999778,-0.439,-2.235,0.804
2025-12-24T00:53:53.352985,1.6108,0.001308,-0.002795,-0.016139,0.001382,-0.002997,-0.016101,0.298692,0.002795,0.300000,0.000000,0.047916,-0.002475,2.745,-0.142,0.041518,0.006687,-0.000289,-0.000389,-0.000013,-0.002073,14661854,4,1,1,0.00,16.000,106,102,0.048118,-0.002736,,10.565,0,0.000202,-0.000261,0,0,0.998,0,1,rigid_body,0.1327,1,0.00090,0,0.001382,-0.002997,-0.016101,0.003796,0.019478,-0.008522,-0.999767,-0.454,-2.228,0.986
2025-12-24T00:53:53.363566,1.6214,0.001355,-0.002948,-0.016089,0.001433,-0.003191,-0.016015,0.298645,0.002948,0.300000,0.000000,0.047916,-0.002475,2.745,-0.142,0.041518,0.006687,-0.000289,-0.000389,-0.000013,-0.002073,14661855,4,1,1,0.00,0.000,107,105,0.048024,-0.003089,15.574,5.571,1,0.000108,-0.000614,0,0,0.998,0,1,rigid_body,0.1326,1,0.00088,0,0.001433,-0.003191,-0.016015,0.003913,0.019757,-0.008788,-0.999759,-0.469,-2.260,1.016
2025-12-24T00:53:53.374231,1.6321,0.001391,-0.003122,-0.016039,0.001450,-0.003412,-0.015949,0.298609,0.003122,0.300000,0.000000,0.047486,-0.003947,2.721,-0.226,0.041507,0.006777,-0.000798,-0.000434,-0.000014,-0.003498,14661856,4,1,1,0.00,15.000,108,107,0.047916,-0.002475,9.566,1.100,1,0.000430,0.001471,0,0,0.998,0,1,rigid_body,0.1327,1,0.00093,0,0.001450,-0.003412,-0.015949,0.002547,0.019573,-0.008803,-0.999766,-0.312,-2.240,1.015
2025-12-24T00:53:53.384772,1.6426,0.001431,-0.003306,-0.015978,0.001491,-0.003605,-0.015870,0.298569,0.003306,0.300000,0.000000,0.047486,-0.003947,2.721,-0.226,0.041507,0.006777,-0.000798,-0.000434,-0.000014,-0.003498,14661857,4,1,1,0.00,0.000,109,107,0.047916,-0.002475,9.566,11.641,1,0.000430,0.001471,0,0,0.998,0,1,rigid_body,0.1326,1,0.00091,0,0.001491,-0.003605,-0.015870,0.000933,0.019001,-0.009171,-0.999777,-0.127,-2.176,1.053
2025-12-24T00:53:53.396313,1.6541,0.001517,-0.003728,-0.015864,0.001587,-0.004069,-0.015778,0.298483,0.003728,0.300000,0.000000,0.047748,-0.003953,2.736,-0.226,0.041489,0.006968,-0.000709,-0.000518,-0.000017,-0.003418,14661859,4,1,1,0.00,16.000,110,108,0.047486,-0.003947,14.066,8.016,1,-0.000262,0.000006,0,0,0.998,0,1,rigid_body,0.1330,1,0.00091,0,0.001587,-0.004069,-0.015778,-0.002562,0.019401,-0.010782,-0.999750,0.270,-2.226,1.230
2025-12-24T00:53:53.406978,1.6648,0.001596,-0.003996,-0.015743,0.001750,-0.004440,-0.015517,0.298404,0.003996,0.300000,0.000000,0.047748,-0.003953,2.736,-0.226,0.041489,0.006968,-0.000709,-0.000518,-0.000017,-0.003418,14661860,4,1,1,0.00,0.000,111,109,0.047486,-0.003947,19.079,3.127,1,-0.000262,0.000006,0,0,0.998,0,1,rigid_body,0.1329,1,0.00086,0,0.001750,-0.004440,-0.015517,-0.002359,0.018552,-0.010242,-0.999773,0.249,-2.129,1.169
2025-12-24T00:53:53.417432,1.6753,0.001688,-0.004302,-0.015608,0.001852,-0.004816,-0.015365,0.298312,0.004302,0.300000,0.000000,0.046836,-0.006672,2.684,-0.382,0.041465,0.007057,-0.001686,-0.000598,-0.000018,-0.006057,14661861,4,1,1,0.00,15.000,112,109,0.047486,-0.003947,19.079,13.580,1,0.000649,0.002726,0,0,0.998,0,1,rigid_body,0.1331,1,0.00085,0,0.001852,-0.004816,-0.015365,-0.003945,0.018434,-0.011277,-0.999759,0.428,-2.117,1.285
2025-12-24T00:53:53.427789,1.6856,0.001774,-0.004603,-0.015505,0.001907,-0.005071,-0.015350,0.298226,0.004603,0.300000,0.000000,0.047280,-0.005379,2.709,-0.308,0.041453,0.007153,-0.001326,-0.000640,-0.000019,-0.004720,14661862,4,1,1,0.00,16.000,113,111,0.047748,-0.003953,12.587,8.342,1,0.000468,0.001426,0,0,0.998,0,1,rigid_body,0.1335,1,0.00088,0,0.001907,-0.005071,-0.015350,-0.005467,0.017770,-0.011909,-0.999756,0.602,-2.044,1.354
2025-12-24T00:53:53.447959,1.7058,0.002010,-0.005332,-0.015165,0.002224,-0.005919,-0.014877,0.297990,0.005332,0.300000,0.000000,0.046201,-0.008601,2.647,-0.493,0.041421,0.007242,-0.002461,-0.000741,-0.000021,-0.007839,14661864,4,1,1,0.00,15.000,114,112,0.046836,-0.006672,17.979,12.548,1,0.000635,0.001928,0,0,0.998,0,1,rigid_body,0.1336,1,0.00080,0,0.002224,-0.005919,-0.014877,-0.005885,0.016871,-0.012062,-0.999768,0.651,-1.941,1.371
2025-12-24T00:53:53.458534,1.7164,0.002172,-0.005714,-0.014958,0.002457,-0.006309,-0.014598,0.297828,0.005714,0.300000,0.000000,0.046515,-0.006876,2.665,-0.394,0.041398,0.007337,-0.002220,-0.000794,-0.000023,-0.006059,14661865,4,1,1,0.00,16.000,115,112,0.046836,-0.006672,,7.556,0,0.000321,0.000203,0,0,0.998,0,1,rigid_body,0.1340,1,0.00084,0,0.002457,-0.006309,-0.014598,-0.005539,0.017076,-0.012559,-0.999760,0.610,-1.965,1.429
2025-12-24T00:53:53.469099,1.7269,0.002366,-0.006129,-0.014722,0.002707,-0.006795,-0.014313,0.297634,0.006129,0.300000,0.000000,0.046515,-0.006876,2.665,-0.394,0.041398,0.007337,-0.002220,-0.000794,-0.000023,-0.006059,14661866,4,1,1,0.00,0.000,116,114,0.046201,-0.008601,18.630,2.511,1,-0.000314,-0.001725,0,0,0.998,0,1,rigid_body,0.1337,1,0.00083,0,0.002707,-0.006795,-0.014313,-0.006046,0.017264,-0.012736,-0.999752,0.668,-1.987,1.448
2025-12-24T00:53:53.479553,1.7374,0.002576,-0.006563,-0.014462,0.002912,-0.007227,-0.014065,0.297424,0.006563,0.300000,0.000000,0.044793,-0.009857,2.566,-0.565,0.041342,0.007432,-0.003982,-0.000912,-0.000025,-0.008920,14661867,4,1,1,0.00,16.000,117,114,0.046201,-0.008601,18.630,12.964,1,0.001408,0.001256,0,0,0.998,0,1,rigid_body,0.1342,1,0.00081,0,0.002912,-0.007227,-0.014065,-0.005849,0.016951,-0.013244,-0.999752,0.645,-1.951,1.507
2025-12-24T00:53:53.490071,1.7479,0.002842,-0.007018,-0.014135,0.003279,-0.007730,-0.013591,0.297158,0.007018,0.300000,0.000000,0.045065,-0.008282,2.582,-0.475,0.041305,0.007522,-0.003762,-0.000975,-0.000027,-0.007279,14661868,4,1,1,0.00,15.000,118,115,0.046515,-0.006876,23.524,8.012,1,0.001451,0.001406,0,0,0.998,0,1,rigid_body,0.1346,1,0.00090,0,0.003279,-0.007730,-0.013591,-0.003542,0.016372,-0.013038,-0.999775,0.382,-1.881,1.488
2025-12-24T00:53:53.500641,1.7585,0.003073,-0.007508,-0.013786,0.003410,-0.008284,-0.013223,0.296927,0.007508,0.300000,0.000000,0.045065,-0.008282,2.582,-0.475,0.041305,0.007522,-0.003762,-0.000975,-0.000027,-0.007279,14661869,4,1,1,0.00,0.000,119,117,0.044793,-0.009857,18.068,3.020,1,-0.000272,-0.001575,0,0,0.998,0,1,rigid_body,0.1342,1,0.00079,0,0.003410,-0.008284,-0.013223,-0.006046,0.016944,-0.015041,-0.999725,0.664,-1.952,1.713
2025-12-24T00:53:53.511156,1.7690,0.003322,-0.008011,-0.013431,0.003699,-0.008787,-0.012872,0.296678,0.008011,0.300000,0.000000,0.043681,-0.011652,2.503,-0.668,0.041238,0.007617,-0.005174,-0.001114,-0.000030,-0.010509,14661870,4,1,1,0.00,16.000,120,117,0.044793,-0.009857,18.068,13.535,1,0.001112,0.001795,0,0,0.998,0,1,rigid_body,0.1349,1,0.00083,0,0.003699,-0.008787,-0.012872,-0.007615,0.016260,-0.013290,-0.999750,0.848,-1.875,1.509
2025-12-24T00:53:53.521737,1.7796,0.003571,-0.008520,-0.013102,0.003950,-0.009305,-0.012621,0.296429,0.008520,0.300000,0.000000,0.043681,-0.011652,2.503,-0.668,0.041238,0.007617,-0.005174,-0.001114,-0.000030,-0.010509,14661871,4,1,1,0.00,0.000,121,119,0.045065,-0.008282,12.540,8.555,1,0.001384,0.003370,0,0,0.998,0,1,rigid_body,0.1345,1,0.00082,0,0.003950,-0.009305,-0.012621,-0.010219,0.015467,-0.012496,-0.999750,1.149,-1.787,1.414
2025-12-24T00:53:53.532319,1.7901,0.003916,-0.009090,-0.012683,0.004494,-0.009988,-0.012027,0.296084,0.009090,0.300000,0.000000,0.042252,-0.013756,2.421,-0.788,0.041156,0.007711,-0.006615,-0.001264,-0.000032,-0.012460,14661872,4,1,1,0.00,16.000,122,120,0.043681,-0.011652,17.656,3.508,1,0.001429,0.002104,0,0,0.998,0,1,rigid_body,0.1352,1,0.00078,0,0.004494,-0.009988,-0.012027,-0.008489,0.015145,-0.012142,-0.999776,0.952,-1.747,1.377
2025-12-24T00:53:53.542885,1.8007,0.004232,-0.009669,-0.012285,0.004752,-0.010567,-0.011659,0.295768,0.009669,0.300000,0.000000,0.043688,-0.011084,2.503,-0.635,0.041112,0.007800,-0.005224,-0.001344,-0.000035,-0.009705,14661873,4,1,1,0.00,15.000,123,120,0.043681,-0.011652,17.656,14.073,1,-0.000007,-0.000567,0,0,0.998,0,1,rigid_body,0.1358,1,0.00084,0,0.004752,-0.010567,-0.011659,-0.008837,0.014216,-0.010209,-0.999808,0.996,-1.639,1.156
2025-12-24T00:53:53.553463,1.8113,0.004486,-0.010350,-0.011933,0.004817,-0.011470,-0.011420,0.295514,0.010350,0.300000,0.000000,0.043688,-0.011084,2.503,-0.635,0.041112,0.007800,-0.005224,-0.001344,-0.000035,-0.009705,14661874,4,1,1,0.00,0.000,124,122,0.042252,-0.013756,12.083,9.061,1,-0.001435,-0.002672,0,0,0.999,0,1,rigid_body,0.1352,1,0.00051,0,0.004817,-0.011470,-0.011420,-0.015560,0.014248,-0.005223,-0.999764,1.775,-1.642,0.573
2025-12-24T00:53:53.564009,1.8218,0.004905,-0.010965,-0.011399,0.005613,-0.011886,-0.010480,0.295095,0.010965,0.300000,0.000000,0.041669,-0.015363,2.387,-0.880,0.041018,0.007894,-0.007244,-0.001524,-0.000039,-0.013800,14661875,4,1,1,0.00,16.000,125,123,0.043688,-0.011084,17.585,3.539,1,0.002019,0.004278,0,0,0.998,0,1,rigid_body,0.1359,1,0.00088,0,0.005613,-0.011886,-0.010480,-0.010157,0.013367,-0.008053,-0.999827,1.152,-1.541,0.907
2025-12-24T00:53:53.575018,1.8328,0.005326,-0.011623,-0.010822,0.005987,-0.012612,-0.009887,0.294674,0.011623,0.300000,0.000000,0.042615,-0.012548,2.442,-0.719,0.040960,0.007983,-0.006327,-0.001616,-0.000042,-0.010890,14661876,4,1,1,0.00,15.000,126,123,0.043688,-0.011084,17.585,14.549,1,0.001073,0.001464,0,0,0.998,0,1,rigid_body,0.1365,1,0.00082,0,0.005987,-0.012612,-0.009887,-0.012079,0.013158,-0.006044,-0.999822,1.375,-1.516,0.674
2025-12-24T00:53:53.586107,1.8439,0.006101,-0.013010,-0.009665,0.006585,-0.014158,-0.008883,0.293899,0.013010,0.300000,0.000000,0.040466,-0.016822,2.319,-0.964,0.040852,0.008077,-0.008462,-0.001808,-0.000047,-0.014967,14661878,4,1,1,0.00,16.000,127,125,0.041669,-0.015363,12.532,9.566,1,0.001203,0.001459,0,0,0.999,0,1,rigid_body,0.1368,1,0.00057,0,0.006585,-0.014158,-0.008883,-0.018911,0.012374,0.000964,-0.999744,2.169,-1.416,-0.137
2025-12-24T00:53:53.596421,1.8543,0.006670,-0.013662,-0.008950,0.007567,-0.014670,-0.007861,0.293330,0.013662,0.300000,0.000000,0.041210,-0.012918,2.361,-0.740,0.040773,0.008171,-0.007733,-0.001899,-0.000051,-0.010969,14661879,4,1,1,0.00,16.000,128,126,0.042615,-0.012548,17.067,4.336,1,0.001405,0.000370,0,0,0.998,0,1,rigid_body,0.1374,1,0.00089,0,0.007567,-0.014670,-0.007861,-0.013395,0.011785,-0.001746,-0.999839,1.533,-1.353,0.182
2025-12-24T00:53:53.606964,1.8648,0.007189,-0.014344,-0.008275,0.008044,-0.015353,-0.007213,0.292811,0.014344,0.300000,0.000000,0.041210,-0.012918,2.361,-0.740,0.040773,0.008171,-0.007733,-0.001899,-0.000051,-0.010969,14661880,4,1,1,0.00,0.000,129,126,0.042615,-0.012548,17.067,14.879,1,0.001405,0.000370,0,0,0.998,0,1,rigid_body,0.1365,1,0.00077,0,0.008044,-0.015353,-0.007213,-0.013320,0.011154,0.000418,-0.999849,1.527,-1.277,-0.065
2025-12-24T00:53:53.617547,1.8754,0.007771,-0.015003,-0.007492,0.008723,-0.015973,-0.006209,0.292229,0.015003,0.300000,0.000000,0.036793,-0.017470,2.108,-1.001,0.040620,0.008258,-0.012085,-0.002085,-0.000055,-0.015330,14661881,4,1,1,0.00,15.000,130,128,0.041210,-0.012918,11.556,9.570,1,0.004417,0.004552,0,0,0.998,0,1,rigid_body,0.1374,1,0.00099,0,0.008723,-0.015973,-0.006209,-0.010679,0.010473,-0.001633,-0.999887,1.222,-1.202,0.174
2025-12-24T00:53:53.628238,1.8861,0.008360,-0.015702,-0.006758,0.009297,-0.016757,-0.005607,0.291640,0.015702,0.300000,0.000000,0.036793,-0.017470,2.108,-1.001,0.040620,0.008258,-0.012085,-0.002085,-0.000055,-0.015330,14661882,4,1,1,0.00,0.000,131,129,0.041210,-0.012918,16.495,4.779,1,0.004417,0.004552,0,0,0.998,0,1,rigid_body,0.1366,1,0.00089,0,0.009297,-0.016757,-0.005607,-0.011037,0.009768,-0.000858,-0.999891,1.264,-1.120,0.086
2025-12-24T00:53:53.638878,1.8967,0.008857,-0.016452,-0.006137,0.009455,-0.017681,-0.005362,0.291143,0.016452,0.300000,0.000000,0.035681,-0.019571,2.044,-1.121,0.040469,0.008352,-0.013139,-0.002287,-0.000061,-0.017223,14661883,4,1,1,0.00,16.000,132,130,0.036793,-0.017470,21.331,0.000,1,0.001112,0.002100,0,0,0.999,0,1,rigid_body,0.1380,1,0.00048,0,0.009455,-0.017681,-0.005362,-0.016318,0.009837,0.002343,-0.999816,1.873,-1.123,-0.287
2025-12-24T00:53:53.649953,1.9078,0.009495,-0.017163,-0.005347,0.010544,-0.018234,-0.004083,0.290505,0.017163,0.300000,0.000000,0.038692,-0.014777,2.217,-0.847,0.040380,0.008445,-0.010133,-0.002386,-0.000066,-0.012325,14661884,4,1,1,0.00,16.000,133,130,0.036793,-0.017470,21.331,11.075,1,-0.001899,-0.002693,0,0,0.998,0,1,rigid_body,0.1387,1,0.00098,0,0.010544,-0.018234,-0.004083,-0.007600,0.009053,-0.002753,-0.999926,0.868,-1.040,0.308
2025-12-24T00:53:53.660627,1.9185,0.010163,-0.017902,-0.004582,0.011235,-0.019028,-0.003414,0.289837,0.017902,0.300000,0.000000,0.038692,-0.014777,2.217,-0.847,0.040380,0.008445,-0.010133,-0.002386,-0.000066,-0.012325,14661885,4,1,1,0.00,0.000,134,132,0.035681,-0.019571,15.593,6.156,1,-0.003011,-0.004794,0,0,0.998,0,1,rigid_body,0.1375,1,0.00076,0,0.011235,-0.019028,-0.003414,-0.008810,0.007674,-0.001724,-0.999930,1.008,-0.881,0.190
2025-12-24T00:53:53.671157,1.9290,0.010807,-0.018646,-0.003850,0.011827,-0.019749,-0.002688,0.289193,0.018646,0.300000,0.000000,0.033968,-0.019696,1.946,-1.128,0.040198,0.008531,-0.014761,-0.002592,-0.000072,-0.017032,14661886,4,1,1,0.00,15.000,135,133,0.038692,-0.014777,19.702,1.503,1,0.004724,0.004919,0,0,0.998,0,1,rigid_body,0.1385,1,0.00079,0,0.011827,-0.019749,-0.002688,-0.010799,0.006731,0.000462,-0.999919,1.238,-0.771,-0.061
2025-12-24T00:53:53.681824,1.9397,0.011586,-0.019414,-0.003020,0.012887,-0.020583,-0.001676,0.288414,0.019414,0.300000,0.000000,0.036850,-0.015467,2.111,-0.886,0.040090,0.008624,-0.011863,-0.002699,-0.000078,-0.012691,14661887,4,1,1,0.00,16.000,136,133,0.038692,-0.014777,19.702,12.169,1,0.001842,0.000690,0,0,0.998,0,1,rigid_body,0.1393,1,0.00076,0,0.012887,-0.020583,-0.001676,-0.007533,0.007474,-0.002531,-0.999941,0.861,-0.859,0.284
